the_geom,zone_id,stop_id,stop_code,stop_name,stop_desc,stop_lat,stop_lon,cartodb_id,stop_url,location_t,parent_sta,name_cur,routes_wkd,routes_off,routes_all
0101000020E6100000C9022670EB7B52C0CEF9298E03694440,0,302,0,145TH STREET-LENOX,0,40.820421,-73.936245,94,0,0,0,145TH STREET,3,3,3
0101000020E6100000FBCE2F4AD07D52C08DC8772975574440,0,A44,0,CLINTON - WASHINGTON,0,40.683263,-73.965838,212,0,0,0,CLINTON - WASHINGTON,C,"A, C","A, C"
0101000020E610000010AE80423D7F52C0DEC5FB71FB5B4440,0,F15,0,DELANCY STREET,0,40.718611,-73.988114,299,0,0,0,DELANCY STREET,F,F,F
0101000020E6100000766F4562827952C04704E3E0D2714440,0,101,0,242ND STREET-BWAY (Van Cortland Park),0,40.889248,-73.898583,1,0,0,0,242ND STREET - VAN CORTLAND PARK,1,1,1
0101000020E6100000E6EB32FCA77952C076A73B4F3C714440,0,103,0,238TH STREET-BWAY,0,40.884653,-73.900878,2,0,0,0,238TH STREET,1,1,1
0101000020E6100000C493DDCCE87952C058F2785A7E704440,0,104,0,231ST STREET-BWAY,0,40.878856,-73.904834,3,0,0,0,231ST STREET,1,1,1
0101000020E6100000C478CDAB3A7A52C0B4AD669DF16F4440,0,106,0,225TH STREET-BWAY (Marble Hill),0,40.874561,-73.909831,4,0,0,0,225TH STREET - MARBLE HILL,1,1,1
0101000020E6100000CCED5EEE937A52C00BDAE4F0496F4440,0,107,0,215TH STREET-10 AV,0,40.869444,-73.915279,5,0,0,0,215TH STREET - 10 AV,1,1,1
0101000020E61000001A36CAFACD7A52C0AB37A3E6AB6E4440,0,108,0,207TH STREET-10 AV,0,40.864621,-73.918822,6,0,0,0,207TH STREET - 10 AV,1,1,1
0101000020E610000052D158FB3B7B52C0DB183BE1256E4440,0,109,0,DYCKMAN ST. - 200 STREET,0,40.860531,-73.925536,7,0,0,0,DYCKMAN ST - 200 STREET,1,1,1
0101000020E6100000A220787C7B7B52C05DDC4603786D4440,0,110,0,191 STREET - ST. NICHOLAS,0,40.855225,-73.929412,8,0,0,0,191 STREET - ST NICHOLAS,1,1,1
0101000020E61000004AEB6F09C07B52C0ED647094BC6C4440,0,111,0,181 STREET - ST. NICHOLAS,0,40.849505,-73.933596,9,0,0,0,181 STREET - ST NICHOLAS,1,1,1
0101000020E6100000FC389A232B7C52C0713AC956976B4440,0,112,0,168TH STREET - BWAY- WASHINGTON HGTS,0,40.840556,-73.940133,10,0,0,0,168TH STREET- WASHINGTON HGTS,1,1,1
0101000020E61000005114E813797C52C0F64201DBC16A4440,0,113,0,157TH STREET - BWAY,0,40.834041,-73.94489,11,0,0,0,157TH STREET,1,1,1
0101000020E61000004DDBBFB2D27C52C0F1BC546CCC694440,0,114,0,145TH STREET - BWAY,0,40.826551,-73.95036,12,0,0,0,145TH STREET,1,1,1
0101000020E6100000B9BE0F07097D52C07286E28E37694440,0,115,0,137TH STREET - BWAY (City College),0,40.822008,-73.953676,13,0,0,0,137TH STREET - CITY COLLEGE,1,1,1
0101000020E6100000BC5983F7557D52C0971E4DF564684440,0,116,0,125TH STREET - BWAY,0,40.815581,-73.958372,14,0,0,0,125TH STREET,1,1,1
0101000020E6100000C8EF6DFAB37D52C03E213B6F63674440,0,117,0,116TH STREET - BWAY - Columbia Univ,0,40.807722,-73.96411,15,0,0,0,116TH STREET - COLUMBIA UNIV,1,1,1
0101000020E6100000164F3DD2E07D52C018080264E8664440,0,118,0,110TH STREET - BWAY - Cathedral Pkwy,0,40.803967,-73.966847,16,0,0,0,110TH STREET - CATHEDRAL PKWY,1,1,1
0101000020E610000086C8E9EBF97D52C082751C3F54664440,0,119,0,103RD STREET - BWAY,0,40.799446,-73.968379,17,0,0,0,103RD STREET,1,1,1
0101000020E610000083893F8A3A7E52C0265646239F654440,0,120,0,96TH STREET - BWAY,0,40.793919,-73.972323,18,0,0,0,96TH STREET,"1, 2, 3","1, 2, 3","1, 2, 3"
0101000020E61000000FF10F5B7A7E52C0E3175E49F2644440,0,121,0,86TH STREET - BWAY,0,40.788644,-73.976218,19,0,0,0,86TH STREET,1,"1, 2","1, 2"
0101000020E6100000D8F2CAF5B67E52C07A1C06F357644440,0,122,0,79TH STREET - BWAY,0,40.783934,-73.979917,20,0,0,0,79TH STREET,1,"1, 2","1, 2"
0101000020E6100000CDE9B298D87E52C08E3C1059A4634440,0,123,0,72ND STREET - BWAY,0,40.778453,-73.98197,21,0,0,0,72ND STREET,"1, 2, 3","1, 2, 3","1, 2, 3"
0101000020E61000008F352383DC7E52C089B5F81400634440,0,124,0,66TH STREET - BWAY (Lincoln Center),0,40.77344,-73.982209,22,0,0,0,66TH STREET - LINCOLN CENTER,1,"1, 2","1, 2"
0101000020E61000009D7FBBECD77E52C00620EEEA55624440,0,125,0,59 ST. COLUMBUS CIRCLE,0,40.768247,-73.981929,23,0,0,0,59 ST COLUMBUS CIRCLE,1,"1, 2","1, 2"
0101000020E6100000F3CCCB61F77E52C04539984D80614440,0,126,0,50TH STREET-BWAY,0,40.761728,-73.983849,24,0,0,0,50TH STREET,1,"1, 2","1, 2"
0101000020E6100000AA7D3A1E337F52C0787FBC57AD604440,0,127,0,42ND ST. - TIMES SQ.,0,40.75529,-73.987495,25,0,0,0,42ND ST - TIMES SQ,"1, 2, 3","1, 2, 3","1, 2, 3"
0101000020E610000033DE567A6D7F52C09666F3380C604440,0,128,0,34TH ST. - PENN STA.,0,40.750373,-73.991057,26,0,0,0,34TH ST - PENN STA,"1, 2, 3","1, 2, 3","1, 2, 3"
0101000020E61000006DFFCA4A937F52C0520ABABDA45F4440,0,129,0,28TH STREET - 7 AV,0,40.747215,-73.993365,27,0,0,0,28TH STREET,1,"1, 2","1, 2"
0101000020E6100000234223D8B87F52C09949D40B3E5F4440,0,130,0,23RD STREET - 7 AV,0,40.744081,-73.995657,28,0,0,0,23RD STREET,1,"1, 2","1, 2"
0101000020E61000001EA8531EDD7F52C090831266DA5E4440,0,131,0,18TH STREET - 7 AV,0,40.74104,-73.997871,29,0,0,0,18TH STREET,1,"1, 2","1, 2"
0101000020E61000004C1B0E4B038052C0BA111615715E4440,0,132,0,14TH STREET - 7 AV,0,40.737826,-74.000201,30,0,0,0,14TH STREET,"1, 2, 3","1, 2, 3","1, 2, 3"
0101000020E610000094BDA59C2F8052C05D15A8C5E05D4440,0,133,0,CHRISTOPHER - SHERIDAN S,0,40.733422,-74.002906,31,0,0,0,CHRISTOPHER - SHERIDAN S,1,"1, 2","1, 2"
0101000020E6100000925ED4EE578052C0C0232A54375D4440,0,134,0,HOUSTON STREET - IRT,0,40.728251,-74.005367,32,0,0,0,HOUSTON STREET,1,"1, 2","1, 2"
0101000020E6100000E36DA5D7668052C032E4D87A865C4440,0,135,0,CANAL STREET - IRT,0,40.722854,-74.006277,33,0,0,0,CANAL STREET,1,"1, 2","1, 2"
0101000020E61000003633FAD1708052C04AB6BA9C125C4440,0,136,0,FRANKLIN STREET - IRT,0,40.719318,-74.006886,34,0,0,0,FRANKLIN STREET,1,"1, 2","1, 2"
0101000020E6100000BEBD6BD0978052C0F58079C8945B4440,0,137,0,CHAMBERS STREET - IRT,0,40.715478,-74.009266,35,0,0,0,CHAMBERS STREET,"1, 2, 3","1, 2, 3","1, 2, 3"
0101000020E6100000AF93FAB2B48052C06ED40AD3F75A4440,0,138,0,CORLANDT STREET - IRT,0,40.710688,-74.011029,36,0,0,0,CORTLANDT STREET,R,"N, R","N, R"
0101000020E6100000698F17D2E18052C0573F36C98F5A4440,0,139,0,RECTOR STREET,0,40.707513,-74.013783,37,0,0,0,RECTOR STREET,1,1,1
0101000020E610000032C9C859D88052C0FF06EDD5C7594440,0,140,0,SOUTH FERRY (A LOOP),0,40.701411,-74.013205,38,0,0,0,SOUTH FERRY - A LOOP,,,
0101000020E6100000A46FD234287F52C01D588E90814C4440,0,B22,0,25 AVENUE,0,40.597704,-73.986829,245,0,0,0,25 AVENUE,D,D,D
0101000020E610000030134548DD8052C09D62D520CC594440,0,142,0,SOUTH FERRY TERMINAL,0,40.701542,-74.013506,39,0,0,0,SOUTH FERRY TERMINAL,1,1,1
0101000020E6100000B554DE8E707652C09A99999999734440,0,201,0,EAST 241ST STREET - WAKEFIELD,0,40.903125,-73.85062,40,0,0,0,EAST 241ST STREET - WAKEFIELD,2,2,2
0101000020E61000002F9FAC18AE7652C0E3344415FE724440,0,204,0,EAST 238TH STREET - NEREID,0,40.898379,-73.854376,41,0,0,0,EAST 238TH STREET - NEREID,"2, 5","2, 5","2, 5"
0101000020E61000005D15A8C5E07652C093E00D6954724440,0,205,0,EAST 233RD STREET,0,40.893201,-73.857469,42,0,0,0,EAST 233RD STREET,"2, 5","2, 5","2, 5"
0101000020E61000001C9AB2D30F7752C0731074B4AA714440,0,206,0,EAST 225TH STREET,0,40.888022,-73.860341,43,0,0,0,EAST 225TH STREET,"2, 5","2, 5","2, 5"
0101000020E6100000D3DC0A61357752C0880CAB7823714440,0,207,0,219TH STREET-WHITE PLAINS RD,0,40.883895,-73.862633,44,0,0,0,219TH STREET - WHITE PLAINS RD,"2, 5","2, 5","2, 5"
0101000020E6100000AF7D01BD707752C0956588635D704440,0,208,0,GUN HILL ROAD,0,40.87785,-73.866256,45,0,0,0,GUN HILL ROAD,"2, 5","2, 5","2, 5"
0101000020E610000030116F9D7F7752C03196E997886F4440,0,209,0,BURKE AVENUE,0,40.871356,-73.867164,46,0,0,0,BURKE AVENUE,"2, 5","2, 5","2, 5"
0101000020E6100000B187F6B1827752C023F77475C76E4440,0,210,0,ALLERTON AVE.,0,40.865462,-73.867352,47,0,0,0,ALLERTON AVE,"2, 5","2, 5","2, 5"
0101000020E610000038A11001877752C04832AB77B86D4440,0,211,0,PELHAM PKWY - BRONX ZOO,0,40.857192,-73.867615,48,0,0,0,PELHAM PKWY - BRONX ZOO,"2, 5",2,"2, 5"
0101000020E6100000DD3EABCC947752C0ECF65965A66C4440,0,212,0,BRONX PARK EAST,0,40.848828,-73.868457,49,0,0,0,BRONX PARK EAST,"2, 5",2,"2, 5"
0101000020E6100000B35C363AE77752C06D59BE2EC36B4440,0,213,0,E 180TH STREET,0,40.841894,-73.873488,50,0,0,0,E 180TH STREET,"2, 5","2, 5","2, 5"
0101000020E610000029780AB9527852C004FF5BC98E6B4440,0,214,0,EAST TREMONT AVE. - WEST FARMS SQ - 177 ST,0,40.840295,-73.880049,51,0,0,0,EAST TREMONT AVE - WEST FARMS SQ,"2, 5","2, 5","2, 5"
0101000020E6100000066344A2D07852C0A8AAD0402C6B4440,0,215,0,174TH STREET,0,40.837288,-73.887734,52,0,0,0,174TH STREET,"2, 5","2, 5","2, 5"
0101000020E61000009CDCEF50147952C05874EB353D6A4440,0,216,0,FREEMAN STREET,0,40.829993,-73.891865,53,0,0,0,FREEMAN STREET,"2, 5","2, 5","2, 5"
0101000020E6100000094FE8F5277952C020425C397B694440,0,217,0,SIMPSON STREET,0,40.824073,-73.893064,54,0,0,0,SIMPSON STREET,"2, 5","2, 5","2, 5"
0101000020E61000005649641F647952C040321D3A3D694440,0,218,0,INTERVALE AVENUE,0,40.822181,-73.896736,55,0,0,0,INTERVALE AVENUE,"2, 5","2, 5","2, 5"
0101000020E6100000E3A08499B67952C065A54929E8684440,0,219,0,PROSPECT AVENUE,0,40.819585,-73.90177,56,0,0,0,PROSPECT AVENUE,"2, 5","2, 5","2, 5"
0101000020E61000001D058882197A52C06AC18BBE82684440,0,220,0,JACKSON AVE.,0,40.81649,-73.907807,57,0,0,0,JACKSON AVE,"2, 5","2, 5","2, 5"
0101000020E6100000F6CFD380418F52C0F9BCE2A947424440,0,S12,0,NASSAU,0,40.517812,-74.238373,491,0,0,0,NASSAU,SI,SI,SI
0101000020E6100000342BDB87BC7A52C0517C7C4276684440,0,221,0,149TH ST. - 3RD AVE,0,40.816109,-73.917757,58,0,0,0,149TH ST - 3RD AVE,"2, 5","2, 5","2, 5"
0101000020E610000054A703594F7B52C0145CACA8C1684440,0,222,0,149TH ST. - GRAND CONCOURSE - LOWER LEVEL,0,40.81841,-73.926718,59,0,0,0,149TH ST - GRAND CONCOURSE - LOWER LEVEL,"2, 5","2, 5","2, 5"
0101000020E6100000B4C35F93357C52C0363AE7A738684440,0,224,0,135 STREET - LENOX,0,40.814229,-73.94077,60,0,0,0,135 STREET,"2, 3","2, 3","2, 3"
0101000020E61000005E13D21A837C52C0F6402B3064674440,0,225,0,125 STREET - LENOX,0,40.807745,-73.945502,61,0,0,0,125 STREET,"2, 3","2, 3","2, 3"
0101000020E6100000B29DEFA7C67C52C0EF17B325AB664440,0,226,0,116 STREET - LENOX,0,40.802098,-73.949625,62,0,0,0,116 STREET,"2, 3","2, 3","2, 3"
0101000020E61000004167D2A6EA7C52C08E06F01648664440,0,227,0,110 STREET - LENOX (CENTRAL PARK NORTH),0,40.799075,-73.951822,63,0,0,0,110 STREET - CENTRAL PARK NORTH,"2, 3","2, 3","2, 3"
0101000020E61000001536035C908052C0A7B05241455B4440,0,228,0,PARK PLACE,0,40.713051,-74.008811,64,0,0,0,PARK PLACE,"2, 3","2, 3","2, 3"
0101000020E61000008786C5A86B8052C02BA1BB24CE5A4440,0,229,0,FULTON STREET,0,40.709416,-74.006571,65,0,0,0,FULTON STREET,"2, 3","2, 3","2, 3"
0101000020E610000031992A18958052C021904B1C795A4440,0,230,0,WALL - WILLIAM ST,0,40.706821,-74.0091,66,0,0,0,WALL - WILLIAM ST,"2, 3","2, 3","2, 3"
0101000020E6100000640795B88E7F52C03509DE9046594440,0,231,0,CLARK STREET,0,40.697466,-73.993086,67,0,0,0,CLARK STREET,"2, 3","2, 3","2, 3"
0101000020E6100000BF4692205C7F52C0A0FB7266BB584440,0,232,0,BOROUGH HALL,0,40.693219,-73.989998,68,0,0,0,BOROUGH HALL,"2, 3","2, 3","2, 3"
0101000020E6100000CBDB114E0B7F52C04AB54FC763584440,0,233,0,HOYT STREET - FULTON MALL,0,40.690545,-73.985065,69,0,0,0,HOYT STREET - FULTON MALL,"2, 3","2, 3","2, 3"
0101000020E6100000567F8461C07E52C028CDE67118584440,0,234,0,NEVINS STREET,0,40.688246,-73.980492,70,0,0,0,NEVINS STREET,"2, 3, 4, 5","2, 3, 4, 5","2, 3, 4, 5"
0101000020E6100000501A6A14927E52C094DC611399574440,0,235,0,ATLANTIC AVENUE - PACIFIC ST,0,40.684359,-73.977666,71,0,0,0,ATLANTIC AVENUE - PACIFIC ST,"2, 3, 4, 5","2, 3, 4, 5","2, 3, 4, 5"
0101000020E610000048197101687E52C08E95986725574440,0,236,0,BERGEN STREET,0,40.680829,-73.975098,72,0,0,0,BERGEN STREET,"2, 3","2, 3, 4","2, 3, 4"
0101000020E6100000583A1F9E257E52C0AA0EB9196E564440,0,237,0,GRAND ARMY PLAZA,0,40.675235,-73.971046,73,0,0,0,GRAND ARMY PLAZA,"2, 3","2, 3, 4","2, 3, 4"
0101000020E61000001E85EB51B87D52C0282B86AB03564440,0,238,0,EASTERN PARKWAY - BROOKLYN MUSEUM,0,40.671987,-73.964375,74,0,0,0,EASTERN PARKWAY - BROOKLYN MUSEUM,"2, 3","2, 3, 4","2, 3, 4"
0101000020E61000002992AF04527D52C0080264E8D8554440,0,239,0,FRANKLIN  AVE.,0,40.670682,-73.958131,75,0,0,0,FRANKLIN  AVE,"2, 3, 4, 5","2, 3, 4, 5","2, 3, 4, 5"
0101000020E61000003D7782FDD77C52C0F646AD307D554440,0,241,0,PRESIDENT STREET,0,40.667883,-73.950683,76,0,0,0,PRESIDENT STREET,"2, 5","2, 5","2, 5"
0101000020E6100000B459F5B9DA7C52C0C3D7D7BAD4544440,0,242,0,STERLING STREET,0,40.662742,-73.95085,77,0,0,0,STERLING STREET,"2, 5","2, 5","2, 5"
0101000020E6100000302AA913D07C52C02F6D382C0D544440,0,243,0,WINTHROP STREET,0,40.656652,-73.9502,78,0,0,0,WINTHROP STREET,"2, 5","2, 5","2, 5"
0101000020E6100000598638D6C57C52C04FEACBD24E534440,0,244,0,CHURCH  AVE.,0,40.650843,-73.949575,79,0,0,0,CHURCH  AVE,"2, 5","2, 5","2, 5"
0101000020E6100000AC8F87BEBB7C52C0845B3E9292524440,0,245,0,BEVERLY ROAD,0,40.645098,-73.948959,80,0,0,0,BEVERLY ROAD,"2, 5","2, 5","2, 5"
0101000020E6100000AA0A0DC4B27C52C076C24B70EA514440,0,246,0,NEWKIRK AVE.,0,40.639967,-73.948411,81,0,0,0,NEWKIRK AVE,"2, 5","2, 5","2, 5"
0101000020E61000003A94A12AA67C52C09FDD21C500514440,0,247,0,FLATBUSH AVENUE - BROOKLYN COLLEGE,0,40.632836,-73.947642,82,0,0,0,FLATBUSH AVENUE - BROOKLYN COLLEGE,"2, 5","2, 5","2, 5"
0101000020E61000006F7D586FD47C52C06F29E78BBD554440,0,248,0,NOSTRAND AVE.,0,40.669847,-73.950466,83,0,0,0,NOSTRAND AVE,3,"2, 3, 4, 5","2, 3, 4, 5"
0101000020E610000044A4A65D4C7C52C0CF7CCEDDAE554440,0,249,0,KINGSTON AVE.,0,40.669399,-73.942161,84,0,0,0,KINGSTON AVE,3,"2, 3, 4, 5","2, 3, 4, 5"
0101000020E610000026C45C52B57B52C03EB2B96A9E554440,0,250,0,UTICA AVENUE - CROWN HEIGHTS,0,40.668897,-73.932942,85,0,0,0,UTICA AVENUE - CROWN HEIGHTS,"3, 4","2, 3, 4, 5","2, 3, 4, 5"
0101000020E61000009B3DD00A0C7B52C0300C587215554440,0,251,0,SUTTER AVE. - RUTLAND RD,0,40.664717,-73.92261,86,0,0,0,SUTTER AVE - RUTLAND RD,3,"2, 3, 4, 5","2, 3, 4, 5"
0101000020E6100000465C001AA57A52C0A96BED7DAA544440,0,252,0,SARATOGA AVE.,0,40.661453,-73.916327,87,0,0,0,SARATOGA AVE,3,"2, 3, 4, 5","2, 3, 4, 5"
0101000020E61000001FF5D72B2C7A52C0AE7FD767CE544440,0,253,0,ROCKAWAY AVE.,0,40.662549,-73.908946,88,0,0,0,ROCKAWAY AVE,3,"2, 3, 4, 5","2, 3, 4, 5"
0101000020E6100000E4D70FB1C17952C0E5B33C0FEE544440,0,254,0,JUNIUS STREET,0,40.663515,-73.902447,89,0,0,0,JUNIUS STREET,3,"2, 3, 4, 5","2, 3, 4, 5"
0101000020E6100000A796ADF5457952C072637AC212554440,0,255,0,PENNSYLVANIA AVE.,0,40.664635,-73.894895,90,0,0,0,PENNSYLVANIA AVE,3,"2, 3, 4, 5","2, 3, 4, 5"
0101000020E6100000758E01D9EB7852C0F513CE6E2D554440,0,256,0,VAN SICLEN AVE.,0,40.665449,-73.889395,91,0,0,0,VAN SICLEN AVE,3,"2, 3, 4, 5","2, 3, 4, 5"
0101000020E6100000250516C0947852C0AB39403047554440,0,257,0,NEW LOTS STATION,0,40.666235,-73.884079,92,0,0,0,NEW LOTS STATION,3,"2, 3, 4, 5","2, 3, 4, 5"
0101000020E6100000D9EBDD1FEF7B52C00CEA5BE674694440,0,301,0,148TH ST - LENOX AVE - HARLEM,0,40.82388,-73.93647,93,0,0,0,148TH ST AVE - HARLEM,3,3,3
0101000020E6100000F294D5743D7852C0E20511A969714440,0,401,0,WOODLAWN-JEROME AVENUE,0,40.886037,-73.878751,95,0,0,0,WOODLAWN - JEROME AVENUE,4,4,4
0101000020E61000008B4F01309E7852C0F853E3A59B704440,0,402,0,MOSHOLU PARKWAY,0,40.87975,-73.884655,96,0,0,0,MOSHOLU PARKWAY,4,4,4
0101000020E610000034D6FECEF67852C08BF7E3F6CB6F4440,0,405,0,BEDFORD PARK BLVD - LEHMAN COLLEGE,0,40.873412,-73.890064,97,0,0,0,BEDFORD PARK BLVD - LEHMAN COLLEGE,4,4,4
0101000020E610000093347F4C6B7952C073637AC2126F4440,0,406,0,KINGSBRIDGE ROAD,0,40.86776,-73.897174,98,0,0,0,KINGSBRIDGE ROAD,4,4,4
0101000020E610000061A5828AAA7952C002F22554706E4440,0,407,0,FORDHAM ROAD,0,40.862803,-73.901034,99,0,0,0,FORDHAM ROAD,4,4,4
0101000020E6100000A3224E27D97952C028D4D347E06D4440,0,408,0,183RD STREET,0,40.858407,-73.903879,100,0,0,0,183RD STREET,4,4,4
0101000020E61000008FC6A17E177A52C028D6A9F23D6D4440,0,409,0,BURNSIDE AVENUE,0,40.853453,-73.907684,101,0,0,0,BURNSIDE AVENUE,4,4,4
0101000020E610000019AC38D55A7A52C0B1A71DFE9A6C4440,0,410,0,176TH STREET,0,40.84848,-73.911794,102,0,0,0,176TH STREET,4,4,4
0101000020E61000001349F4328A7A52C0B3D0CE69166C4440,0,411,0,MT. EDEN AVE.,0,40.844434,-73.914685,103,0,0,0,MT EDEN AVE,4,4,4
0101000020E61000000A647616BD7A52C0F697DD93876B4440,0,412,0,170TH STREET,0,40.840075,-73.917791,104,0,0,0,170TH STREET,4,4,4
0101000020E610000034A2B437F87A52C08ACC5CE0F26A4440,0,413,0,167TH STREET,0,40.835537,-73.9214,105,0,0,0,167TH STREET,4,4,4
0101000020E6100000DFA7AAD0407B52C061A417B5FB694440,0,414,0,161ST ST. (YANKEE STADIUM),0,40.827994,-73.925831,106,0,0,0,161ST ST - YANKEE STADIUM,4,4,4
0101000020E61000006D3A02B8597B52C0986E1283C0684440,0,415,0,149TH ST. - GRAND CONCOURSE - UPPER LEVEL,0,40.818375,-73.927351,107,0,0,0,149TH ST - GRAND CONCOURSE - UPPER LEVEL,4,4,4
0101000020E6100000F94D61A5827B52C041295AB917684440,0,416,0,138TH ST. - GRAND CONCOURSE,0,40.813224,-73.929849,108,0,0,0,138TH ST - GRAND CONCOURSE,"4, 5","4, 5","4, 5"
0101000020E61000002101A3CB9B8052C0FE0FB056ED5A4440,0,418,0,FULTON STREET,0,40.710368,-74.009509,109,0,0,0,FULTON STREET,"4, 5","4, 5","4, 5"
0101000020E61000002B84D558C28052C027874F3A915A4440,0,419,0,WALL STREET,0,40.707557,-74.011862,110,0,0,0,WALL STREET,"4, 5","4, 5","4, 5"
0101000020E61000002BC1E270E68052C019558671375A4440,0,420,0,BOWLING GREEN,0,40.704817,-74.014065,111,0,0,0,BOWLING GREEN,"4, 5","4, 5","4, 5"
0101000020E610000082C64CA25E7F52C04ECFBBB1A0584440,0,423,0,BOROUGH HALL,0,40.692404,-73.990151,112,0,0,0,BOROUGH HALL,"4, 5","4, 5","4, 5"
0101000020E6100000E9995E622C7552C0B6847CD0B3714440,0,501,0,DYRE AVENUE - EASTCHESTER,0,40.8883,-73.830834,113,0,0,0,DYRE AVENUE - EASTCHESTER,5,5,5
0101000020E610000013EE9579AB7552C0469A780778704440,0,502,0,BAYCHESTER AVENUE,0,40.878663,-73.838591,114,0,0,0,BAYCHESTER AVENUE,5,5,5
0101000020E6100000E4F6CB272B7652C0C782C2A04C6F4440,0,503,0,GUN HILL ROAD,0,40.869526,-73.846384,115,0,0,0,GUN HILL ROAD,5,5,5
0101000020E6100000B7D5AC33BE7652C094607138F36D4440,0,504,0,PELHAM PARKWAY,0,40.858985,-73.855359,116,0,0,0,PELHAM PARKWAY,5,5,5
0101000020E6100000C7D79E59127752C09B70AFCC5B6D4440,0,505,0,MORRIS PARK,0,40.854364,-73.860495,117,0,0,0,MORRIS PARK,5,5,5
0101000020E61000005F0839EFFF7452C0988A8D791D6D4440,0,601,0,PELHAM BAY PARK,0,40.852462,-73.828121,118,0,0,0,PELHAM BAY PARK,"6, 6X","6, 6X","6, 6X"
0101000020E610000076AA7CCF487552C07EF62345646C4440,0,602,0,BUHRE AVENUE,0,40.84681,-73.832569,119,0,0,0,BUHRE AVENUE,"6, 6X","6, 6X","6, 6X"
0101000020E610000038BBB54C867552C0F7A6E9B3036C4440,0,603,0,MIDDLETOWN ROAD,0,40.843863,-73.836322,120,0,0,0,MIDDLETOWN ROAD,"6, 6X","6, 6X","6, 6X"
0101000020E61000004206F2ECF27552C00516C094816B4440,0,604,0,WESTCHESTER SQ - EAST TREMONT,0,40.839892,-73.842952,121,0,0,0,WESTCHESTER SQ - EAST TREMONT,"6, 6X","6, 6X","6, 6X"
0101000020E610000038A27BD6357652C08CBFED09126B4440,0,606,0,ZEREGA AVENUE,0,40.836488,-73.847036,122,0,0,0,ZEREGA AVENUE,"6, 6X","6, 6X","6, 6X"
0101000020E6100000B0E8D66B7A7652C022C32ADEC86A4440,0,607,0,CASTLE HILL AVENUE,0,40.834255,-73.851222,123,0,0,0,CASTLE HILL AVENUE,"6, 6X","6, 6X","6, 6X"
0101000020E6100000E8F7FD9B177752C0A5164A26A76A4440,0,608,0,177TH ST. PARKCHESTER,0,40.833226,-73.860816,124,0,0,0,177TH ST PARKCHESTER,"6, 6X","6, 6X","6, 6X"
0101000020E6100000F0DAA50D877752C032AA0CE36E6A4440,0,609,0,ST. LAWRENCE AVENUE,0,40.831509,-73.867618,125,0,0,0,ST LAWRENCE AVENUE,6,6,6
0101000020E61000000AF5F411F87752C0302C7FBE2D6A4440,0,610,0,SOUNDVIEW AVENUE (MORRISON),0,40.829521,-73.874516,126,0,0,0,SOUNDVIEW AVENUE - MORRISON,6,6,6
0101000020E6100000FB3E1C24447852C093FE5E0A0F6A4440,0,611,0,ELDER AVENUE,0,40.828584,-73.879159,127,0,0,0,ELDER AVENUE,6,6,6
0101000020E61000000D0055DCB87852C0C7293A92CB694440,0,612,0,WHITLOCK AVENUE,0,40.826525,-73.886283,128,0,0,0,WHITLOCK AVENUE,6,6,6
0101000020E6100000129F3BC1FE7852C0B9DBF5D214694440,0,613,0,HUNTS POINT AVE,0,40.820948,-73.890549,129,0,0,0,HUNTS POINT AVE,"6, 6X","6, 6X","6, 6X"
0101000020E610000058FFE7305F7952C041118B1876684440,0,614,0,LONGWOOD AVENUE,0,40.816104,-73.896435,130,0,0,0,LONGWOOD AVENUE,6,6,6
0101000020E61000004298DBBDDC7952C0183F8D7BF3674440,0,615,0,EAST 149TH STREET,0,40.812118,-73.904098,131,0,0,0,EAST 149TH STREET,6,6,6
0101000020E610000012BF620D177A52C0B153AC1A84674440,0,616,0,E 143RD ST - ST. MARY'S ST,0,40.808719,-73.907657,132,0,0,0,E 143RD ST - ST MARY'S ST,6,6,6
0101000020E6100000E84A04AA7F7A52C05A9F724C16674440,0,617,0,CYPRESS AVENUE,0,40.805368,-73.914042,133,0,0,0,CYPRESS AVENUE,6,6,6
0101000020E6100000344B02D4D47A52C047AE9B525E674440,0,618,0,BROOK AVENUE,0,40.807566,-73.91924,134,0,0,0,BROOK AVENUE,6,6,6
0101000020E61000004D6551D8457B52C0B11875ADBD674440,0,619,0,138TH ST. THIRD AVENUE,0,40.810476,-73.926138,135,0,0,0,138TH ST THIRD AVENUE,"6, 6X",6,"6, 6X"
0101000020E610000041BB438A017C52C046BC75FEED664440,0,621,0,125TH STREET - LEXINGTON,0,40.804138,-73.937594,136,0,0,0,125TH STREET,"4, 5, 6, 6X","4, 5, 6","4, 5, 6, 6X"
0101000020E6100000E316F373437C52C08D519E7939664440,0,622,0,116TH STREET - LEXINGTON,0,40.798629,-73.941617,137,0,0,0,116TH STREET,"6, 6X","4, 6","4, 6, 6X"
0101000020E6100000DF4F8D976E7C52C03DD52137C3654440,0,623,0,110TH STREET - LEXINGTON,0,40.79502,-73.94425,138,0,0,0,110TH STREET,"6, 6X","4, 6","4, 6, 6X"
0101000020E61000007DEBC37AA37C52C0D91B7C6132654440,0,624,0,103RD STREET - LEXINGTON,0,40.7906,-73.947478,139,0,0,0,103RD STREET,"6, 6X","4, 6","4, 6, 6X"
0101000020E61000003A8DB454DE7C52C003B16CE690644440,0,625,0,96TH STREET - LEXINGTON,0,40.785672,-73.95107,140,0,0,0,96TH STREET,"6, 6X","4, 6","4, 6, 6X"
0101000020E6100000B6DAC35E287D52C031BFD364C6634440,0,626,0,86TH STREET - LEXINGTON,0,40.779492,-73.955589,141,0,0,0,86TH STREET,"4, 5, 6, 6X","4, 5, 6","4, 5, 6, 6X"
0101000020E6100000F7915B936E7D52C009C4EBFA05634440,0,627,0,77TH STREET - LEXINGTON,0,40.77362,-73.959874,142,0,0,0,77TH STREET,"6, 6X","4, 6","4, 6, 6X"
0101000020E61000001DE6CB0BB07D52C0BEDBBC7152624440,0,628,0,68TH STREET - HUNTER COLLEGE,0,40.768141,-73.96387,143,0,0,0,68TH STREET - HUNTER COLLEGE,"6, 6X","4, 6","4, 6, 6X"
0101000020E6100000DD26DC2BF37D52C0C52CB4739A614440,0,629,0,59TH STREET - LEXINGTON,0,40.762526,-73.967967,144,0,0,0,59TH STREET,"4, 5, 6, 6X","4, 5, 6","4, 5, 6, 6X"
0101000020E61000000395F1EF337E52C04C49D6E1E8604440,0,630,0,51TH STREET - LEXINGTON,0,40.757107,-73.97192,145,0,0,0,51TH STREET,"6, 6X","4, 6","4, 6, 6X"
0101000020E61000006F4A79AD847E52C077F52A323A604440,0,631,0,GRAND CENTRAL - LEXINGTON - 42 ST,0,40.751776,-73.976848,146,0,0,0,GRAND CENTRAL - 42 ST,"4, 5, 6, 6X","4, 5, 6","4, 5, 6, 6X"
0101000020E6100000F08B4B55DA7E52C05F950B957F5F4440,0,632,0,33RD STREET - LEXINGTON,0,40.746081,-73.982076,147,0,0,0,33RD STREET,"6, 6X","4, 6","4, 6, 6X"
0101000020E610000053A86E2EFE7E52C0C151F2EA1C5F4440,0,633,0,28TH STREET - LEXINGTON,0,40.74307,-73.984264,148,0,0,0,28TH STREET,"6, 6X","4, 6","4, 6, 6X"
0101000020E61000000BD12170247F52C06DBE11DDB35E4440,0,634,0,23RD STREET - LEXINGTON,0,40.739864,-73.986599,149,0,0,0,23RD STREET,"6, 6X","4, 6","4, 6, 6X"
0101000020E61000001F69705B5B7F52C08A20CEC3095E4440,0,635,0,14TH STREET - LEXINGTON - UNION SQ,0,40.734673,-73.989951,150,0,0,0,14TH STREET - UNION SQ,"4, 5, 6, 6X","4, 5, 6","4, 5, 6, 6X"
0101000020E6100000FD82DDB06D7F52C03128D368725D4440,0,636,0,ASTOR PL-8TH ST-LEXINGTON,0,40.730054,-73.99107,151,0,0,0,ASTOR PL - 8TH ST,"6, 6X","4, 6","4, 6, 6X"
0101000020E610000003EB387EA87F52C0855660C8EA5C4440,0,637,0,BLEECKER STREET-LEXINGTON,0,40.725915,-73.994659,152,0,0,0,BLEECKER STREET,"6, 6X","4, 6","4, 6, 6X"
0101000020E61000000C207C28D17F52C01E6FF25B745C4440,0,638,0,SPRING STREET-LEXINGTON,0,40.722301,-73.997141,153,0,0,0,SPRING STREET,"6, 6X","4, 6","4, 6, 6X"
0101000020E61000000A2C8029038052C023A298BC015C4440,0,639,0,CANAL STREET,0,40.718803,-74.000193,154,0,0,0,CANAL STREET,"6, 6X","4, 6","4, 6, 6X"
0101000020E61000009679ABAE438052C00C76C3B6455B4440,0,640,0,BROOKLYN BRIDGE-CITY HALL,0,40.713065,-74.004131,155,0,0,0,BROOKLYN BRIDGE - CITY HALL,"4, 5, 6, 6X","4, 5, 6","4, 5, 6, 6X"
0101000020E6100000B92C26361F7552C05205A3923A614440,0,701,0,MAIN STREET - FLUSHING,0,40.7596,-73.83003,156,0,0,0,MAIN STREET - FLUSHING,"7, 7X","7, 7X","7, 7X"
0101000020E6100000200C3CF71E7652C0887C975297604440,0,702,0,WILLETS POINT (SHEA STADIUM),0,40.754618,-73.84564,157,0,0,0,WILLETS POINT - SHEA STADIUM,"7, 7X","7, 7X","7, 7X"
0101000020E6100000F20703CFBD7652C007B64AB038604440,0,705,0,111TH STREET - STATION,0,40.75173,-73.855335,158,0,0,0,111TH STREET - STATION,7,7,7
0101000020E610000097900F7A367752C020B58993FB5F4440,0,706,0,103RD STREET - CORAON PLAZA,0,40.749865,-73.8627,159,0,0,0,103RD STREET - CORONA PLAZA,7,7,7
0101000020E61000004CFF9254A67752C0207BBDFBE35F4440,0,707,0,JUNCTION BOULEVARD,0,40.749145,-73.869527,160,0,0,0,JUNCTION BOULEVARD,"7, 7X","7, 7X","7, 7X"
0101000020E6100000E78F696D1A7852C04A0856D5CB5F4440,0,708,0,90TH STREET - ELMHURST,0,40.748408,-73.876613,161,0,0,0,90TH STREET - ELMHURST,7,7,7
0101000020E6100000B1A4DC7D8E7852C0B0C7444AB35F4440,0,709,0,82 STREET - JACKSON HEIGHTS,0,40.747659,-73.883697,162,0,0,0,82 STREET - JACKSON HEIGHTS,7,7,7
0101000020E610000071766B990C7952C0A08A1BB7985F4440,0,710,0,74TH STREET - BROADWAY,0,40.746848,-73.891394,163,0,0,0,74TH STREET - BROADWAY,7,7,7
0101000020E61000005342B0AA5E7952C0F697DD93875F4440,0,711,0,69TH STREET - FISK AVE,0,40.746325,-73.896403,164,0,0,0,69TH STREET - FISK AVE,7,7,7
0101000020E6100000EB33677DCA7952C04F75C8CD705F4440,0,712,0,61ST STREET - WOODSIDE,0,40.74563,-73.902984,165,0,0,0,61ST STREET - WOODSIDE,"7, 7X","7, 7X","7, 7X"
0101000020E6100000D7BFEB33677A52C0F12C4146405F4440,0,713,0,52ND STREET - LINCOLN Av,0,40.744149,-73.912549,166,0,0,0,52ND STREET - LINCOLN AV,7,7,7
0101000020E61000001D2098A3C77A52C0374E0AF31E5F4440,0,714,0,46TH STREET - BLISS STR,0,40.743132,-73.918435,167,0,0,0,46TH STREET - BLISS STR,7,7,7
0101000020E6100000C43E0114237B52C06E313F37345F4440,0,715,0,40TH STREET - LOWERY ST,0,40.743781,-73.924016,168,0,0,0,40TH STREET - LOWERY ST,7,7,7
0101000020E610000025EB7074957B52C06D0377A04E5F4440,0,716,0,33RD STREET - RAWSON ST,0,40.744587,-73.930997,169,0,0,0,33RD STREET - RAWSON ST,7,7,7
0101000020E6100000906802452C7C52C0AF7B2B1213604440,0,718,0,QUEENSBORO PLAZA (ELEVATED),0,40.750582,-73.940202,170,0,0,0,QUEENSBORO PLAZA - ELEVATED,"7, 7X","7, 7X","7, 7X"
0101000020E6100000838593347F7C52C00E2E1D739E5F4440,0,719,0,45TH ROAD - COURTHOUSE SQ,0,40.747023,-73.945264,171,0,0,0,45TH ROAD - COURTHOUSE SQ,"7, 7X","7, 7X","7, 7X"
0101000020E6100000ABA92C0ABB7C52C0B24813EF005F4440,0,720,0,HUNTERS POINT,0,40.742216,-73.948916,172,0,0,0,HUNTERS POINT,"7, 7X","7, 7X","7, 7X"
0101000020E610000091459A78077D52C06494675E0E5F4440,0,721,0,VERNON - JACKSON AVENUE,0,40.742626,-73.953581,173,0,0,0,VERNON - JACKSON AVENUE,"7, 7X","7, 7X","7, 7X"
0101000020E610000087A3AB74777E52C0AC1919E42E604440,0,723,0,GRAND CENTRAL - 42 ST,0,40.751431,-73.976041,174,0,0,0,GRAND CENTRAL - 42 ST,"7, 7X","7, 7X","7, 7X"
0101000020E610000073B8567BD87E52C0DE04DF347D604440,0,724,0,5TH AVENUE,0,40.753821,-73.981963,175,0,0,0,5TH AVENUE,"7, 7X","7, 7X","7, 7X"
0101000020E61000006CE34F54367F52C0AAF06778B3604440,0,725,0,TIMES SQUARE - 42 ST,0,40.755477,-73.987691,176,0,0,0,TIMES SQUARE - 42 ST,"7, 7X","7, 7X","7, 7X"
0101000020E610000096E65608AB7E52C0A8380EBC5A604440,0,901,0,GRAND CENTRAL SHUTTLE - 42 ST,0,40.752769,-73.979189,177,0,0,0,GRAND CENTRAL SHUTTLE - 42 ST,GS,GS,GS
0101000020E610000079573D601E7F52C07EAA0A0DC4604440,0,902,0,TIMES  SQ. SHUTTLE - 42 ST,0,40.755983,-73.986229,178,0,0,0,TIMES  SQ SHUTTLE - 42 ST,GS,GS,GS
0101000020E6100000E1270EA0DF7A52C06249B9FB1C6F4440,0,A02,0,207TH STREET - INWOOD,0,40.868072,-73.919899,179,0,0,0,207TH STREET - INWOOD,A,A,A
0101000020E6100000DFE17668587B52C0BDFDB968C86E4440,0,A03,0,DYCKMAN STREET (200 ST),0,40.865491,-73.927271,180,0,0,0,DYCKMAN STREET - 200 ST,A,A,A
0101000020E6100000F124E99AC97B52C0B345D26EF46D4440,0,A05,0,190TH STREET - IND,0,40.859022,-73.93418,181,0,0,0,190TH STREET,A,A,A
0101000020E61000005BEA20AF077C52C057957D57046D4440,0,A06,0,181ST STREET - IND,0,40.851695,-73.937969,182,0,0,0,181ST STREET,A,A,A
0101000020E6100000E8FA3E1C247C52C05EF6EB4E776C4440,0,A07,0,175TH STREET - IND,0,40.847391,-73.939704,183,0,0,0,175TH STREET,A,A,A
0101000020E610000036E675C4217C52C01B1021AE9C6B4440,0,A09,0,168TH STREET - IND - WASHINGTON HEIGHTS,0,40.840719,-73.939561,184,0,0,0,168TH STREET - WASHINGTON HEIGHTS,"A, C","A, C","A, C"
0101000020E61000006971C630277C52C0F3035779026B4440,0,A10,0,163RD STREET - AMSTERDAM AV,0,40.836013,-73.939892,185,0,0,0,163RD STREET - AMSTERDAM AV,C,"A, C","A, C"
0101000020E610000079AEEFC3417C52C0A25EF0694E6A4440,0,A11,0,155TH STREET - IND - ST NICHOLAS AV,0,40.830518,-73.941514,186,0,0,0,155TH STREET - ST NICHOLAS AV,C,"A, C","A, C"
0101000020E61000000917F2086E7C52C0FCA5457D92694440,0,A12,0,145TH STREET - IND,0,40.824783,-73.944216,187,0,0,0,145TH STREET,"A, C","A, C","A, C"
0101000020E610000093C5FD47A67C52C01DCC26C0B0684440,0,A14,0,135TH STREET - IND,0,40.817894,-73.947649,188,0,0,0,135TH STREET,"B, C","A, B, C","A, B, C"
0101000020E6100000C5E40D30F37C52C0E13E726BD2674440,0,A15,0,125TH STREET - IND,0,40.811109,-73.952343,189,0,0,0,125TH STREET,"A, B, C, D","A, B, C, D","A, B, C, D"
0101000020E6100000806264C91C7D52C005C078060D674440,0,A16,0,116TH STREET - IND,0,40.805085,-73.954882,190,0,0,0,116TH STREET,"B, C","A, B, C","A, B, C"
0101000020E61000008E57207A527D52C0CD0182397A664440,0,A17,0,110TH STREET - CATHEDRAL PKWY,0,40.800605,-73.958159,191,0,0,0,110TH STREET - CATHEDRAL PKWY,"B, C","A, B, C","A, B, C"
0101000020E6100000F0A65B76887D52C0BA4DB857E6654440,0,A18,0,103RD STREET - IND,0,40.796092,-73.961454,192,0,0,0,103RD STREET,"B, C","A, B, C","A, B, C"
0101000020E61000006F29E78BBD7D52C08D09319754654440,0,A19,0,96TH STREET -,0,40.791644,-73.964694,193,0,0,0,96TH STREET,"B, C","A, B, C","A, B, C"
0101000020E61000008D2441B8027E52C0897C975297644440,0,A20,0,86TH STREET -,0,40.785868,-73.968916,194,0,0,0,86TH STREET,"B, C","A, B, C","A, B, C"
0101000020E610000043024697377E52C0F0811DFF05644440,0,A21,0,81ST STREET - MUSEUM OF NATURAL HISTORY,0,40.781433,-73.972143,195,0,0,0,81ST STREET - MUSEUM OF NATURAL HISTORY,"B, C","A, B, C","A, B, C"
0101000020E6100000315F5E807D7E52C0A67C08AA46634440,0,A22,0,72ND STREET -,0,40.775594,-73.97641,196,0,0,0,72ND STREET,"B, C","A, B, C","A, B, C"
0101000020E610000093533BC3D47E52C0E5D2F88557624440,0,A24,0,59TH ST - COLUMBUS CIRCLE,0,40.768296,-73.981736,197,0,0,0,59TH ST - COLUMBUS CIRCLE,"A, B, C, D","A, B, C, D","A, B, C, D"
0101000020E61000004698A25C1A7F52C0C951802898614440,0,A25,0,50TH STREET,0,40.762456,-73.985984,198,0,0,0,50TH STREET,"C, E","A, C, E","A, C, E"
0101000020E6100000382D78D1577F52C0E57FF277EF604440,0,A27,0,42ND ST - PORT AUTHORITY,0,40.757308,-73.989735,199,0,0,0,42ND ST - PORT AUTHORITY,"A, C, E","A, C, E","A, C, E"
0101000020E61000000249D8B7937F52C05D1ABFF04A604440,0,A28,0,34TH ST - PENN STATION,0,40.752287,-73.993391,200,0,0,0,34TH ST - PENN STATION,"A, C, E","A, C, E","A, C, E"
0101000020E61000004CC45BE7DF7F52C0F1F109D9795F4440,0,A30,0,23RD STREET,0,40.745906,-73.998041,201,0,0,0,23RD STREET,"C, E","A, C, E","A, C, E"
0101000020E6100000BCAE5FB01B8052C0EC6AF294D55E4440,0,A31,0,14TH STREET - 8 AV,0,40.740893,-74.00169,202,0,0,0,14TH STREET - 8 AV,"A, C, E","A, C, E","A, C, E"
0101000020E6100000F0332E1C088052C01CCF6740BD5D4440,0,A32,0,WEST 4 ST - UPPER LEVEL - WASHINTON SQ,0,40.732338,-74.000495,203,0,0,0,WEST 4 ST - UPPER LEVEL,"A, C, E","A, C, E","A, C, E"
0101000020E610000010AE80423D8052C0713C9F01F55C4440,0,A33,0,SPRING STREET,0,40.726227,-74.003739,204,0,0,0,SPRING STREET,"C, E","A, C, E","A, C, E"
0101000020E610000069FF03AC558052C00016F9F5435C4440,0,A34,0,CANAL STREET - IND,0,40.720824,-74.005229,205,0,0,0,CANAL STREET,"A, C, E","A, C, E","A, C, E"
0101000020E61000001D8F19A88C8052C0605B3FFD675B4440,0,A36,0,CHAMBERS STREET,0,40.714111,-74.008585,206,0,0,0,CHAMBERS STREET,"A, C","A, C","A, C"
0101000020E61000004E5E64027E8052C0D15B3CBCE75A4440,0,A38,0,BROADWAY - NASSAU,0,40.710197,-74.007691,207,0,0,0,BROADWAY - NASSAU,"A, C","A, C","A, C"
0101000020E610000026AB22DC647F52C0FDF0F3DF83594440,0,A40,0,HIGH STREET - BROOKLYN BRIDGE,0,40.699337,-73.990531,208,0,0,0,HIGH STREET - BROOKLYN BRIDGE,"A, C","A, C","A, C"
0101000020E6100000E7FD7F9C307F52C097E315889E584440,0,A41,0,JAY STREET - BORO HALL,0,40.692338,-73.987342,209,0,0,0,JAY STREET - BORO HALL,"A, C, F","A, C, F","A, C, F"
0101000020E6100000BE61A2410A7F52C0DEE8633E20584440,0,A42,0,HOYT STREET - SCHERMERHORN ST,0,40.688484,-73.985001,210,0,0,0,HOYT STREET - SCHERMERHORN ST,"A, C, G","A, C, G","A, C, G"
0101000020E61000007B849A21557E52C0232E008DD2574440,0,A43,0,LAFAYETTE AVENUE,0,40.686113,-73.973946,211,0,0,0,LAFAYETTE AVENUE,C,"A, C","A, C"
0101000020E61000008DCF64FF3C7D52C00113B87537574440,0,A45,0,FRANKLIN AVENUE,0,40.68138,-73.956848,213,0,0,0,FRANKLIN AVENUE,C,"A, C","A, C"
0101000020E610000028D192C7D37C52C0537AA69718574440,0,A46,0,NOSTRAND AVENUE,0,40.680438,-73.950426,214,0,0,0,NOSTRAND AVENUE,"A, C","A, C","A, C"
0101000020E61000006DC9AA08377C52C08B6EBDA607574440,0,A47,0,KINGSTON - THROOP AVE,0,40.679921,-73.940859,215,0,0,0,KINGSTON - THROOP AVE,C,"A, C","A, C"
0101000020E6100000151C5E10917B52C0340A4966F5564440,0,A48,0,UTICA AVENUE,0,40.679364,-73.930729,216,0,0,0,UTICA AVENUE,"A, C","A, C","A, C"
0101000020E610000057276728EE7A52C014E7A8A3E3564440,0,A49,0,RALPH AVENUE,0,40.678822,-73.920786,217,0,0,0,RALPH AVENUE,C,"A, C","A, C"
0101000020E6100000F46DC1525D7A52C0C9C859D8D3564440,0,A50,0,ROCKAWAY AVENUE,0,40.67834,-73.911946,218,0,0,0,ROCKAWAY AVENUE,C,"A, C","A, C"
0101000020E6100000EA2285B2F07952C0E7E104A6D3564440,0,A51,0,BROADWAY - E. NEW YORK,0,40.678334,-73.905316,219,0,0,0,BROADWAY - E NEW YORK,"A, C","A, C","A, C"
0101000020E6100000D4D2DC0A617952C0A4E36A6457564440,0,A52,0,LIBERTY AVENUE,0,40.674542,-73.896548,220,0,0,0,LIBERTY AVENUE,C,"A, C","A, C"
0101000020E6100000D9EE1EA0FB7852C099D87C5C1B564440,0,A53,0,VAN SICLEN AVENUE,0,40.67271,-73.890358,221,0,0,0,VAN SICLEN AVENUE,C,"A, C","A, C"
0101000020E6100000EE7C3F355E7852C051A04FE449564440,0,A54,0,SHEPHERD AVENUE,0,40.67413,-73.88075,222,0,0,0,SHEPHERD AVENUE,C,"A, C","A, C"
0101000020E61000004E29AF95D07752C03BBCE7C072564440,0,A55,0,EUCLID AVENUE,0,40.675377,-73.872106,223,0,0,0,EUCLID AVENUE,"A, C","A, C","A, C"
0101000020E6100000E8D9ACFA5C7752C0FDF9B660A9564440,0,A57,0,GRANT AVENUE,0,40.677044,-73.86505,224,0,0,0,GRANT AVENUE,A,A,A
0101000020E6100000A4E194B9F97652C0E86C01A1F5564440,0,A59,0,80TH STREET (HUDSON),0,40.679371,-73.858992,225,0,0,0,80TH STREET - HUDSON,A,A,A
0101000020E61000009CE1067C7E7652C00EB56D1805574440,0,A60,0,88TH STREET - BOYD AVE,0,40.679843,-73.85147,226,0,0,0,88TH STREET - BOYD AVE,A,A,A
0101000020E6100000696803B0017652C0FF1F274C18574440,0,A61,0,ROCKAWAY BOULEVARD,0,40.680429,-73.843853,227,0,0,0,ROCKAWAY BOULEVARD,A,A,A
0101000020E6100000925A28999C7552C06729594E42574440,0,A63,0,104TH STREET - OXFORD AVE,0,40.681711,-73.837683,228,0,0,0,104TH STREET - OXFORD AVE,A,A,A
0101000020E61000003D7C9928427552C0CA51802898574440,0,A64,0,111TH STREET - GREENWOOD AVE,0,40.684331,-73.832163,229,0,0,0,111TH STREET - GREENWOOD AVE,A,A,A
0101000020E61000008BC6DADFD97452C04AD40B3ECD574440,0,A65,0,LEFFERTS BOULEVARD - OZONE PARK,0,40.685951,-73.825798,230,0,0,0,LEFFERTS BOULEVARD - OZONE PARK,A,A,A
0101000020E6100000745FCE6C577C52C0C5C551B989604440,0,B04,0,21ST - L. I.CITY - QUEENSBRIDGE,0,40.754203,-73.942836,231,0,0,0,21ST - LI. CITY - QUEENSBRIDGE,F,F,F
0101000020E610000070253B36027D52C001F6D1A92B614440,0,B06,0,ROOSEVELT ISLAND,0,40.759145,-73.95326,232,0,0,0,ROOSEVELT ISLAND,F,F,F
0101000020E6100000344B02D4D47D52C02DC55565DF614440,0,B08,0,LEXINGTON - 63 ST,0,40.76463,-73.966115,233,0,0,0,LEXINGTON - 63 ST,F,F,F
0101000020E6100000529CA38E8E7E52C0D40B3ECDC9614440,0,B10,0,57TH STREET,0,40.763971,-73.977451,234,0,0,0,57TH STREET,F,F,F
0101000020E610000030682101A37F52C04ED53DB2B9524440,0,B12,0,NINTH AVE (WEST END)-9 ave,0,40.646292,-73.994324,235,0,0,0,NINTH AVE - WEST END-9 AVE,D,D,D
0101000020E61000000C923EADA27F52C037C64E7809524440,0,B13,0,FORT HAMILTON,0,40.640914,-73.994304,236,0,0,0,FORT HAMILTON,D,D,D
0101000020E6100000BAD6DEA7AA7F52C061E0B9F770514440,0,B14,0,50 STREET,0,40.63626,-73.994791,237,0,0,0,50 STREET,D,D,D
0101000020E6100000FCFCF7E0B57F52C05F46B1DCD2504440,0,B15,0,55 STREET,0,40.631435,-73.995476,238,0,0,0,55 STREET,D,D,D
0101000020E6100000F0A2AF20CD7F52C00BEE073C30504440,0,B16,0,62TH ST - NEW UTRECHT,0,40.626472,-73.996895,239,0,0,0,62TH ST - NEW UTRECHT,D,D,D
0101000020E6100000B6494563ED7F52C00DFB3DB14E4F4440,0,B17,0,71ST STREET,0,40.619589,-73.998864,240,0,0,0,71ST STREET,D,D,D
0101000020E61000003C8386FE098052C01A886533874E4440,0,B18,0,79TH STREET,0,40.613501,-74.00061,241,0,0,0,79TH STREET,D,D,D
0101000020E610000074CE4F711C8052C077BCC96FD14D4440,0,B19,0,18 AVENUE,0,40.607954,-74.001736,242,0,0,0,18 AVENUE,D,D,D
0101000020E61000007BFA08FCE17F52C0E04C4C17624D4440,0,B20,0,20 AVENUE,0,40.604556,-73.998168,243,0,0,0,20 AVENUE,D,D,D
0101000020E6100000A647533D997F52C0D7A3703D0A4D4440,0,B21,0,BAY PARKWAY (86 ST),0,40.601875,-73.993728,244,0,0,0,BAY PARKWAY - 86 ST,D,D,D
0101000020E6100000C47C7901F67E52C0A0C552245F4B4440,0,B23,0,BAY 50 STREET,0,40.588841,-73.983765,246,0,0,0,BAY 50 STREET,D,D,D
0101000020E610000044BB0A293F7852C02D978DCEF96F4440,0,D01,0,205TH STREET - NORWOOD - BAIN BRIDGE,0,40.874811,-73.878855,247,0,0,0,205TH STREET - NORWOOD - BAINBRIDGE,D,D,D
0101000020E61000007B4276DEC67852C0D0B69A75C66F4440,0,D03,0,BEDFORD PARK BLVD,0,40.873244,-73.887138,248,0,0,0,BEDFORD PARK BLVD,"B, D","B, D","B, D"
0101000020E6100000A06B5F402F7952C0FE2C9622F96E4440,0,D04,0,KINGSBRIDGE ROAD,0,40.866978,-73.893509,249,0,0,0,KINGSBRIDGE ROAD,"B, D","B, D","B, D"
0101000020E610000012C138B8747952C07B1684F23E6E4440,0,D05,0,FORDHAM ROAD,0,40.861296,-73.897749,250,0,0,0,FORDHAM ROAD,"B, D","B, D","B, D"
0101000020E6100000A54A94BDA57952C0D2AA9674946D4440,0,D06,0,182 - 183RD STREET,0,40.856093,-73.900741,251,0,0,0,182 - 183RD STREET,"B, D","B, D","B, D"
0101000020E6100000321D3A3DEF7952C07D18213CDA6C4440,0,D07,0,TREMONT AVENUE,0,40.85041,-73.905227,252,0,0,0,TREMONT AVENUE,"B, D","B, D","B, D"
0101000020E610000062BA10AB3F7A52C0DBD78173466C4440,0,D08,0,174TH - 175TH STREET,0,40.8459,-73.910136,253,0,0,0,174TH - 175TH STREET,"B, D","B, D","B, D"
0101000020E6100000A60A4625757A52C015AB06616E6B4440,0,D09,0,170TH STREET,0,40.839306,-73.9134,254,0,0,0,170TH STREET,"B, D","B, D","B, D"
0101000020E6100000D5592DB0C77A52C0D7A4DB12B96A4440,0,D10,0,167TH STREET,0,40.833773,-73.918438,255,0,0,0,167TH STREET,"B, D","B, D","B, D"
0101000020E61000009F20B1DD3D7B52C0F29881CAF8694440,0,D11,0,161 STREET - YANKEE STADIUM,0,40.827905,-73.925651,256,0,0,0,161 STREET - YANKEE STADIUM,"B, D","B, D","B, D"
0101000020E610000005F4C29D0B7C52C0E9211ADD416A4440,0,D12,0,155TH STREET,0,40.830135,-73.938209,257,0,0,0,155TH STREET,"B, D","B, D","B, D"
0101000020E61000000917F2086E7C52C0FCA5457D92694440,0,D13,0,145TH STREET,0,40.824783,-73.944216,258,0,0,0,145TH STREET,"B, D","B, D","B, D"
0101000020E6100000CAE2FE23D37E52C03AAE4676A5614440,0,D14,0,7TH AVE - 53 ST,0,40.762862,-73.981637,259,0,0,0,7TH AVE - 53 ST,"B, D, E","B, D, E","B, D, E"
0101000020E610000073672618CE7E52C0B6D782DE1B614440,0,D15,0,47-50TH ST - ROCKEFELLER CTR.,0,40.758663,-73.981329,260,0,0,0,47-50TH ST - ROCKEFELLER CTR,"B, D, F, M","B, D, F, M","B, D, F, M"
0101000020E6100000F1E9B12D037F52C03CF6B3588A604440,0,D16,0,42ND STREET - BRYANT PARK,0,40.754222,-73.984569,261,0,0,0,42ND STREET - BRYANT PARK,"B, D, F, M","B, D, F, M","B, D, F, M"
0101000020E610000025CFF57D387F52C04C18CDCAF65F4440,0,D17,0,34TH STREET - HERALD SQ,0,40.749719,-73.987823,262,0,0,0,34TH STREET - HERALD SQ,"B, D, F, M","B, D, F, M","B, D, F, M"
0101000020E61000000D7217618A7F52C07C7555A0165F4440,0,D18,0,23RD STREET -,0,40.742878,-73.992821,263,0,0,0,23RD STREET,"F, M","F, M","F, M"
0101000020E6100000C6BE64E3C17F52C0E97E4E417E5E4440,0,D19,0,14TH STREET -,0,40.738228,-73.996209,264,0,0,0,14TH STREET,"F, M","F, M","F, M"
0101000020E6100000F0332E1C088052C01CCF6740BD5D4440,0,D20,0,WEST 4 ST - WASHINGTON SQ,0,40.732338,-74.000495,265,0,0,0,WEST 4 ST - WASHINGTON SQ,"B, D, F, M","B, D, F, M","B, D, F, M"
0101000020E61000003E096CCEC17F52C087713788D65C4440,0,D21,0,BROADWAY-LAFAYETTE,0,40.725297,-73.996204,266,0,0,0,BROADWAY - LAFAYETTE,"B, D, F, M","B, D, F, M","B, D, F, M"
0101000020E610000051D32EA6997F52C0E3654D2CF05B4440,0,D22,0,GRAND STREET,0,40.718267,-73.993753,267,0,0,0,GRAND STREET,"B, D","B, D","B, D"
0101000020E61000008672A25D857E52C0C8B5A1629C574440,0,D24,0,ATLANTIC AVENUE,0,40.68446,-73.97689,268,0,0,0,ATLANTIC AVENUE,"B, Q","B, Q","B, Q"
0101000020E61000006B2DCC423B7E52C0DFE00B93A9564440,0,D25,0,7 AVENUE (BRIGHTON),0,40.67705,-73.972367,269,0,0,0,7 AVENUE - BRIGHTON,"B, Q","B, Q","B, Q"
0101000020E61000003C2D3F70957D52C0B2497EC4AF544440,0,D26,0,PROSPECT PARK,0,40.661614,-73.962246,270,0,0,0,PROSPECT PARK,"B, FS, Q","B, FS, Q","B, FS, Q"
0101000020E61000001F115322897D52C04CAAB69BE0534440,0,D27,0,PARKSIDE AVENUE,0,40.655292,-73.961495,271,0,0,0,PARKSIDE AVENUE,"B, Q","B, Q","B, Q"
0101000020E6100000BF28417FA17D52C01E15FF7744534440,0,D28,0,CHURCH AVENUE,0,40.650527,-73.962982,272,0,0,0,CHURCH AVENUE,"B, Q","B, Q","B, Q"
0101000020E61000003C50A73CBA7D52C01A4E999B6F524440,0,D29,0,BEVERLEY ROAD,0,40.644031,-73.964492,273,0,0,0,BEVERLEY ROAD,"B, Q","B, Q","B, Q"
0101000020E6100000297AE063B07D52C0CB0F5CE509524440,0,D30,0,CORTELYOU ROAD - DORCHESTER,0,40.640927,-73.963891,274,0,0,0,CORTELYOU ROAD - DORCHESTER,"B, Q","B, Q","B, Q"
0101000020E610000056F487669E7D52C09E23F25D4A514440,0,D31,0,NEWKIRK AVENUE,0,40.635082,-73.962793,275,0,0,0,NEWKIRK AVENUE,"B, Q","B, Q","B, Q"
0101000020E6100000B9E34D7E8B7D52C04D2D5BEB8B504440,0,D32,0,AVENUE H,0,40.62927,-73.961639,276,0,0,0,AVENUE H,"B, Q","B, Q","B, Q"
0101000020E610000084B9DDCB7D7D52C0BEDC274701504440,0,D33,0,AVENUE J,0,40.625039,-73.960803,277,0,0,0,AVENUE J,"B, Q","B, Q","B, Q"
0101000020E61000002B3410CB667D52C0E1B54B1B0E4F4440,0,D34,0,AVENUE M,0,40.617618,-73.959399,278,0,0,0,AVENUE M,"B, Q","B, Q","B, Q"
0101000020E61000001B118C834B7D52C0350708E6E84D4440,0,D35,0,KINGS HIGHWAY,0,40.60867,-73.957734,279,0,0,0,KINGS HIGHWAY,"B, Q","B, Q","B, Q"
0101000020E61000001213D4F02D7D52C0133FC6DCB54C4440,0,D37,0,AVENUE U (BRIGHTON),0,40.5993,-73.955929,280,0,0,0,AVENUE U - BRIGHTON,"B, Q","B, Q","B, Q"
0101000020E61000008A5A9A5B217D52C094895B05314C4440,0,D38,0,NECK ROAD - E 16 ST,0,40.595246,-73.955161,281,0,0,0,NECK ROAD - E 16 ST,"B, Q","B, Q","B, Q"
0101000020E6100000261422E0107D52C09D137B681F4B4440,0,D39,0,SHEEPSHEAD BAY,0,40.586896,-73.954155,282,0,0,0,SHEEPSHEAD BAY,"B, Q","B, Q","B, Q"
0101000020E610000032CA332F877D52C0CD3D247CEF494440,0,D40,0,BRIGHTON BEACH,0,40.577621,-73.961376,283,0,0,0,BRIGHTON BEACH,"B, Q","B, Q","B, Q"
0101000020E610000031207BBDFB7D52C06C257497C4494440,0,D41,0,OCEAN PARKWAY,0,40.576312,-73.96849,284,0,0,0,OCEAN PARKWAY,Q,Q,Q
0101000020E61000004CBF44BC757E52C0AA27F38FBE494440,0,D42,0,WEST 8TH STREET - NY AQUARIUM,0,40.576128,-73.975936,285,0,0,0,WEST 8TH STREET - NY AQUARIUM,"F, Q","F, Q","F, Q"
0101000020E61000007A724D81CC7E52C0648BA4DDE8494440,0,D43,0,STILLWELL AVE. - CONEY ISLAND,0,40.577419,-73.981232,286,0,0,0,STILLWELL AVE - CONEY ISLAND,"D, F, N, Q","D, F, N, Q","D, F, N, Q"
0101000020E6100000D1C77C40A08052C0F0DB10E3355B4440,0,E01,0,WORLD TRADE CENTER,0,40.712582,-74.009781,287,0,0,0,WORLD TRADE CENTER,E,E,E
0101000020E61000002043C70E2A7252C007D0EFFB375B4440,0,F01,0,179TH STREET - JAMAICA,0,40.712646,-73.783817,288,0,0,0,179TH STREET - JAMAICA,F,"E, F","E, F"
0101000020E6100000637E6E68CA7252C0016553AEF05A4440,0,F02,0,169TH STREET,0,40.71047,-73.793604,289,0,0,0,169TH STREET,F,F,F
0101000020E6100000B28174B1697352C0D9E90775915A4440,0,F03,0,PARSONS BOULEVARD,0,40.707564,-73.803326,290,0,0,0,PARSONS BOULEVARD,F,"E, F","E, F"
0101000020E6100000C2A6CEA3E27352C06E5166834C5A4440,0,F04,0,SUTPHIN BOULEVARD,0,40.70546,-73.810708,291,0,0,0,SUTPHIN BOULEVARD,F,F,F
0101000020E6100000AA7CCF48847452C04701A260C65A4440,0,F05,0,VAN WYCK BLVD - BRIARWOOD,0,40.709179,-73.820574,292,0,0,0,VAN WYCK BLVD - BRIARWOOD,"E, F","E, F","E, F"
0101000020E6100000B8AD2D3C2F7552C0F5F57CCD725B4440,0,F06,0,UNION TURNPIKE (Kew Gardens),0,40.714441,-73.831008,293,0,0,0,UNION TURNPIKE - KEW GARDENS,"E, F","E, F","E, F"
0101000020E6100000FA0967B7967552C0FB592C45F25B4440,0,F07,0,75TH AVENUE,0,40.718331,-73.837324,294,0,0,0,75TH AVENUE,"E, F","E, F","E, F"
0101000020E6100000068195438B7C52C0E338F06AB95F4440,0,F09,0,23RD - ELY AVENUE,0,40.747846,-73.946,295,0,0,0,23RD - ELY AVENUE,"E, M","E, M","E, M"
0101000020E61000009D4143FF047E52C07B82C476F7604440,0,F11,0,LEXINGTON - 53RD ST,0,40.757552,-73.969055,296,0,0,0,LEXINGTON - 53RD ST,"E, M","E, M","E, M"
0101000020E61000008E91EC116A7E52C0CD3FFA264D614440,0,F12,0,FIFTH AVE - 53RD ST,0,40.760167,-73.975224,297,0,0,0,FIFTH AVE - 53RD ST,"E, M","E, M","E, M"
0101000020E610000054C4E9245B7F52C035EECD6F985C4440,0,F14,0,SECOND AVENUE - LOWER EAST SIDE - 2ND AVE,0,40.723402,-73.989938,298,0,0,0,SECOND AVENUE - LOWER EAST SIDE,F,F,F
0101000020E6100000761893FE5E7F52C013D55B035B5B4440,0,F16,0,EAST BROADWAY,0,40.713715,-73.990173,300,0,0,0,EAST BROADWAY,F,F,F
0101000020E61000006EFAB31F297F52C06E4DBA2D91594440,0,F18,0,YORK STREET,0,40.699743,-73.986885,301,0,0,0,YORK STREET,F,F,F
0101000020E6100000593673486A7F52C02FA86F99D3574440,0,F20,0,BERGEN STREET,0,40.686145,-73.990862,302,0,0,0,BERGEN STREET,"F, G","F, G","F, G"
0101000020E6100000D07CCEDDAE7F52C0732F302B14574440,0,F21,0,CARROLL STREET,0,40.680303,-73.995048,303,0,0,0,CARROLL STREET,"F, G","F, G","F, G"
0101000020E61000000A4AD1CABD7F52C0AE9E93DE37564440,0,F22,0,SMITH - 9TH STREET,0,40.67358,-73.995959,304,0,0,0,SMITH - 9TH STREET,"F, G","F, G","F, G"
0101000020E610000020D1048A587F52C056B60F79CB554440,0,F23,0,4TH AVENUE - 9TH ST,0,40.670272,-73.989779,305,0,0,0,4TH AVENUE - 9TH ST,"F, G","F, G","F, G"
0101000020E6100000BDC62E51BD7E52C0F9A23D5E48554440,0,F24,0,7TH AVENUE - PARK SLOPE,0,40.666271,-73.980305,306,0,0,0,7TH AVENUE - PARK SLOPE,"F, G","F, G","F, G"
0101000020E61000004D6A6803B07E52C026361FD786544440,0,F25,0,15 ST - PROSPECT PARK,0,40.660365,-73.979493,307,0,0,0,15 ST - PROSPECT PARK,"F, G","F, G","F, G"
0101000020E61000002F0E2E1D737E52C0A96917D34C534440,0,F26,0,FORT HAMILTON,0,40.650782,-73.975776,308,0,0,0,FORT HAMILTON,"F, G","F, G","F, G"
0101000020E610000016A75A0BB37E52C03E247CEF6F524440,0,F27,0,CHURCH AVENUE,0,40.644041,-73.979678,309,0,0,0,CHURCH AVENUE,"F, G","F, G","F, G"
0101000020E61000003A77BB5E9A7E52C09FAEEE586C514440,0,F29,0,DITMAS AVENUE,0,40.636119,-73.978172,310,0,0,0,DITMAS AVENUE,F,F,F
0101000020E6100000FD885FB1867E52C009BFD4CF9B504440,0,F30,0,18 AVENUE (CULVER),0,40.629755,-73.976971,311,0,0,0,18 AVENUE - CULVER,F,F,F
0101000020E6100000876F61DD787E52C012BC218D0A504440,0,F31,0,AVENUE I (CULVER),0,40.625322,-73.976127,312,0,0,0,AVENUE I - CULVER,F,F,F
0101000020E6100000D53DB2B96A7E52C071AFCC5B754F4440,0,F32,0,22 AVENUE - BAY PARKWAY,0,40.620769,-73.975264,313,0,0,0,22 AVENUE - BAY PARKWAY,F,F,F
0101000020E610000020B75F3E597E52C0103B53E8BC4E4440,0,F33,0,AVENUE N (CULVER),0,40.61514,-73.974197,314,0,0,0,AVENUE N - CULVER,F,F,F
0101000020E6100000771211FE457E52C0378C82E0F14D4440,0,F34,0,AVENUE P (CULVER),0,40.608944,-73.973022,315,0,0,0,AVENUE P - CULVER,F,F,F
0101000020E6100000FAB9A1293B7E52C014B2F336364D4440,0,F35,0,KINGS HIGHWAY,0,40.603217,-73.972361,316,0,0,0,KINGS HIGHWAY,F,F,F
0101000020E61000004A95287B4B7E52C086ADD9CA4B4C4440,0,F36,0,AVENUE U (CULVER),0,40.596063,-73.973357,317,0,0,0,AVENUE U - CULVER,F,F,F
0101000020E61000003108AC1C5A7E52C0A4880CAB784B4440,0,F38,0,AVENUE X (CULVER),0,40.58962,-73.97425,318,0,0,0,AVENUE X - CULVER,F,F,F
0101000020E61000000B62A06B5F7E52C05242B0AA5E4A4440,0,F39,0,NEPTUNE AVENUE - VAN SICKLEN,0,40.581014,-73.974574,319,0,0,0,NEPTUNE AVENUE - VAN SICKLEN,F,F,F
0101000020E610000000E2AE5E457352C004FEF0F3DF594440,0,G05,0,PARSONS - ARCHER (JAMAICA CENTER),0,40.702147,-73.801109,320,0,0,0,PARSONS - ARCHER - JAMAICA CENTER,"E, J, Z","E, J","E, J, Z"
0101000020E6100000A3CB9BC3B57352C026A77686A9594440,0,G06,0,SUTPHIN BLVD - ARCHER - JFK AIRPORT,0,40.700486,-73.807969,321,0,0,0,SUTPHIN BLVD - ARCHER - JFK AIRPORT,"E, J, Z","E, J","E, J, Z"
0101000020E61000005E9CF86A477452C009A4C4AEED594440,0,G07,0,VAN WYCK - JAMAICA,0,40.702566,-73.816859,322,0,0,0,VAN WYCK - JAMAICA,E,E,E
0101000020E610000041F2CEA10C7652C0A468E55E605C4440,0,G08,0,71 AV - CONTINENTAL AVE - FOREST HILLS,0,40.721691,-73.844521,323,0,0,0,71 AV - CONTINENTAL AVE,"E, F, M, R","E, F, M, R","E, F, M, R"
0101000020E6100000616BB6F2927652C05A65A6B4FE5C4440,0,G09,0,67TH AVENUE,0,40.726523,-73.852719,324,0,0,0,67TH AVENUE,"M, R","E, M, R","E, M, R"
0101000020E610000094861A85247752C0E78EFE976B5D4440,0,G10,0,63RD DRIVE - REGO PARK,0,40.729846,-73.861604,325,0,0,0,63RD DRIVE - REGO PARK,"M, R","E, M, R","E, M, R"
0101000020E610000006EFAB72A17752C02D40DB6AD65D4440,0,G11,0,WOODHAVEN BLVD - QUEENS MALL,0,40.733106,-73.869229,326,0,0,0,WOODHAVEN BLVD - QUEENS MALL,"M, R","E, M, R","E, M, R"
0101000020E61000002313F06B247852C0AAD4EC81565E4440,0,G12,0,GRAND AVENUE - NEWTOWN,0,40.737015,-73.877223,327,0,0,0,GRAND AVENUE - NEWTOWN,"M, R","E, M, R","E, M, R"
0101000020E610000007616EF7727852C0676490BB085F4440,0,G13,0,ELMHURST AVENUE,0,40.742454,-73.882017,328,0,0,0,ELMHURST AVENUE,"M, R","E, M, R","E, M, R"
0101000020E6100000A7EB89AE0B7952C097E0D407925F4440,0,G14,0,ROOSEVELT AVENUE (JACKSON HEIGHTS),0,40.746644,-73.891338,329,0,0,0,ROOSEVELT AVENUE - JACKSON HEIGHTS,"E, F, M, R","E, F, M, R","E, F, M, R"
0101000020E61000008FFF0241807952C09AE95E27F55F4440,0,G15,0,65TH STREET,0,40.749669,-73.898453,330,0,0,0,65TH STREET,"M, R","E, M, R","E, M, R"
0101000020E6100000B5FE9600FC7952C0105322895E604440,0,G16,0,NORTHERN BOULEVARD,0,40.752885,-73.906006,331,0,0,0,NORTHERN BOULEVARD,"M, R","E, M, R","E, M, R"
0101000020E6100000E256410C747A52C043C9E4D4CE604440,0,G18,0,46TH STREET,0,40.756312,-73.913333,332,0,0,0,46TH STREET,"M, R","E, M, R","E, M, R"
0101000020E61000009E077767ED7A52C0BC033C69E1604440,0,G19,0,STEINWAY STREET,0,40.756879,-73.92074,333,0,0,0,STEINWAY STREET,"M, R","E, M, R","E, M, R"
0101000020E61000005B09DD25717B52C085285FD042604440,0,G20,0,36 STREET (NORTHERN BLVD),0,40.752039,-73.928781,334,0,0,0,36 STREET - NORTHERN BLVD,"M, R","E, M, R","E, M, R"
0101000020E6100000EA5910CAFB7B52C0234BE658DE5F4440,0,G21,0,QUEENS PLAZA (IND),0,40.748973,-73.937243,335,0,0,0,QUEENS PLAZA,"E, M, R","E, M, R","E, M, R"
0101000020E6100000C53A55BE677C52C05759DB148F5F4440,0,G22,0,COURT SQ. - LONG ISLAND CITY,0,40.746554,-73.943832,336,0,0,0,COURT SQ - LONG ISLAND CITY,G,G,G
0101000020E61000007C0E2C47C87C52C0938C9C853D5F4440,0,G24,0,21ST STREET - VAN ALST,0,40.744065,-73.949724,337,0,0,0,21ST STREET - VAN ALST,G,G,G
0101000020E6100000CB2C42B1157D52C09DEE3CF19C5D4440,0,G26,0,GREENPOINT AVENUE,0,40.731352,-73.954449,338,0,0,0,GREENPOINT AVENUE,G,G,G
0101000020E6100000F81BEDB8E17C52C0BA44F5D6C05C4440,0,G28,0,NASSAU AVENUE,0,40.724635,-73.951277,339,0,0,0,NASSAU AVENUE,G,G,G
0101000020E6100000D8B45208E47C52C0DB6CACC43C5B4440,0,G29,0,METROPOLITAN AVENUE - GRAND ST,0,40.712792,-73.951418,340,0,0,0,METROPOLITAN AVENUE - GRAND ST,G,G,G
0101000020E61000002448A5D8D17C52C0CEFBFF38615A4440,0,G30,0,BROADWAY-UNION AVENUE,0,40.706092,-73.950308,341,0,0,0,BROADWAY - UNION AVENUE,G,G,G
0101000020E6100000066344A2D07C52C070EF1AF4A5594440,0,G31,0,FLUSHING AVENUE,0,40.700377,-73.950234,342,0,0,0,FLUSHING AVENUE,G,G,G
0101000020E610000093196F2BBD7C52C08F6CAE9AE7584440,0,G32,0,MYRTLE - WILLOUGHBY AVE,0,40.694568,-73.949046,343,0,0,0,MYRTLE - WILLOUGHBY AVE,G,G,G
0101000020E61000000F812381067D52C023B891B245584440,0,G33,0,BEDFORD - NOSTRAND AVE,0,40.689627,-73.953522,344,0,0,0,BEDFORD - NOSTRAND AVE,G,G,G
0101000020E6100000BAF770C9717D52C0780C8FFD2C584440,0,G34,0,CLASSON AVENUE,0,40.688873,-73.96007,345,0,0,0,CLASSON AVENUE,G,G,G
0101000020E6100000D45FAFB0E07D52C061DEE34C13584440,0,G35,0,CLINTON - WASHINGTON AVE,0,40.688089,-73.966839,346,0,0,0,CLINTON - WASHINGTON AVE,G,G,G
0101000020E61000008195438B6C7E52C0E8BAF083F3574440,0,G36,0,FULTON STREET,0,40.687119,-73.975375,347,0,0,0,FULTON STREET,G,G,G
0101000020E6100000E63DCE34617552C0A20914B188554440,0,H02,0,AQUEDUCT - N.CONDUIT - RACETRACK,0,40.668234,-73.834058,348,0,0,0,AQUEDUCT RACETRACK,A,A,A
0101000020E61000008335CEA6237552C07EE5417A8A544440,0,H03,0,HOWARD BEACH - JFK AIRPORT,0,40.660476,-73.830301,349,0,0,0,HOWARD BEACH - JFK AIRPORT,A,A,A
0101000020E610000048BF7D1D387452C0CFBC1C76DF4D4440,0,H04,0,BROAD CHANNEL,0,40.608382,-73.815925,350,0,0,0,BROAD CHANNEL,"A, H","A, H","A, H"
0101000020E6100000705985CD007352C065A9F57EA34B4440,0,H06,0,BEACH 67TH ST - GASTON,0,40.590927,-73.796924,351,0,0,0,BEACH 67TH ST - GASTON,A,A,A
0101000020E61000004B8BFA24777252C0178046E9D24B4440,0,H07,0,BEACH 60TH ST - STRAITON AV,0,40.592374,-73.788522,352,0,0,0,BEACH 60TH ST - STRAITON AV,A,A,A
0101000020E610000056116E32AA7152C031B2648EE54B4440,0,H08,0,BEACH 44TH ST - FRANK AV,0,40.592943,-73.776013,353,0,0,0,BEACH 44TH ST - FRANK AV,A,A,A
0101000020E6100000B5A679C7297152C0490D6D00364C4440,0,H09,0,BEACH 36TH ST - EDGEMERE,0,40.595398,-73.768175,354,0,0,0,BEACH 36TH ST - EDGEMERE,A,A,A
0101000020E610000089EDEE01BA7052C084B872F6CE4C4440,0,H10,0,BEACH 25TH ST - WAVECREST,0,40.600066,-73.761353,355,0,0,0,BEACH 25TH ST - WAVECREST,A,A,A
0101000020E6100000088F368E587052C048F949B54F4D4440,0,H11,0,MOTT AVENUE - FAR ROCKAWAY,0,40.603995,-73.755405,356,0,0,0,MOTT AVENUE - FAR ROCKAWAY,A,A,A
0101000020E6100000D36BB3B1127452C0D077B7B2444B4440,0,H12,0,BEACH 90TH ST - HOLLAND,0,40.588034,-73.813641,357,0,0,0,BEACH 90TH ST - HOLLAND,"A, H",H,"A, H"
0101000020E6100000289EB305847452C0578FFB56EB4A4440,0,H13,0,BEACH 98TH - PLAYLAND,0,40.585307,-73.820558,358,0,0,0,BEACH 98TH - PLAYLAND,"A, H",H,"A, H"
0101000020E6100000AA2006BAF67452C0CEDDAE97A64A4440,0,H14,0,BEACH 105TH ST - SEASIDE,0,40.583209,-73.827559,359,0,0,0,BEACH 105TH ST - SEASIDE,"A, H",H,"A, H"
0101000020E61000002733DE567A7552C0FB928D075B4A4440,0,H15,0,ROCKAWAY PARK - BEACH 116 ST,0,40.580903,-73.835592,360,0,0,0,ROCKAWAY PARK - BEACH 116 ST,"A, H",H,"A, H"
0101000020E6100000455ED6C4027552C0088ECBB8A9594440,0,J12,0,121 STREET - JAMAICA AV,0,40.700492,-73.828294,361,0,0,0,121 STREET - JAMAICA AV,"J, Z",J,"J, Z"
0101000020E610000014CB2DAD867552C024D236FE44594440,0,J13,0,111 STREET - JAMAICA AV,0,40.697418,-73.836345,362,0,0,0,111 STREET - JAMAICA AV,J,J,J
0101000020E61000000642B280097652C00773BB97FB584440,0,J14,0,102ND STREET - 104 ST,0,40.695178,-73.84433,363,0,0,0,102ND STREET - 104 ST,"J, Z",J,"J, Z"
0101000020E6100000BE839F38807652C0CB30EE06D1584440,0,J15,0,WOODHAVEN BOULEVARD,0,40.693879,-73.851576,364,0,0,0,WOODHAVEN BOULEVARD,"J, Z",J,"J, Z"
0101000020E6100000E80E62670A7752C08ACDC7B5A1584440,0,J16,0,FOREST PARKWAY - 85 ST,0,40.692435,-73.86001,365,0,0,0,FOREST PARKWAY - 85 ST,J,J,J
0101000020E6100000838593347F7752C04F78094E7D584440,0,J17,0,ELDERTS LANE - 75 ST,0,40.691324,-73.867139,366,0,0,0,ELDERTS LANE - 75 ST,"J, Z",J,"J, Z"
0101000020E6100000FD87F4DBD77752C0B39597FC4F584440,0,J19,0,CYPRESS HILLS,0,40.689941,-73.87255,367,0,0,0,CYPRESS HILLS,J,J,J
0101000020E610000010AFEB17EC7752C06669A7E672574440,0,J20,0,CRESCENT STREET,0,40.683194,-73.873785,368,0,0,0,CRESCENT STREET,"J, Z",J,"J, Z"
0101000020E6100000170D198F527852C06C95607138574440,0,J21,0,NORWOOD AVENUE,0,40.68141,-73.880039,369,0,0,0,NORWOOD AVENUE,"J, Z",J,"J, Z"
0101000020E61000000971E5EC9D7852C0B401D88008574440,0,J22,0,CLEVELAND STREET,0,40.679947,-73.884639,370,0,0,0,CLEVELAND STREET,J,J,J
0101000020E6100000158F8B6A117952C099F38C7DC9564440,0,J23,0,VAN SICLEN AVENUE,0,40.678024,-73.891688,371,0,0,0,VAN SICLEN AVENUE,"J, Z",J,"J, Z"
0101000020E6100000D91A118C837952C0AAD381ACA7564440,0,J24,0,ALABAMA AVENUE,0,40.676992,-73.898654,372,0,0,0,ALABAMA AVENUE,J,J,J
0101000020E6100000BBB54C86E37952C045D95BCAF9564440,0,J27,0,BROADWAY JUNCTION - EASTERN PARKWAY,0,40.679498,-73.904512,373,0,0,0,BROADWAY JUNCTION - EASTERN PARKWAY,"J, Z",J,"J, Z"
0101000020E61000009B1C3EE9447A52C06BD5AE0969574440,0,J28,0,CHAUNCEY STREET,0,40.682893,-73.910456,374,0,0,0,CHAUNCEY STREET,"J, Z",J,"J, Z"
0101000020E6100000B07614E7A87A52C04E7ADFF8DA574440,0,J29,0,HALSEY STREET,0,40.68637,-73.916559,375,0,0,0,HALSEY STREET,J,J,J
0101000020E61000003E05C078067B52C0942BBCCB45584440,0,J30,0,GATES AVENUE,0,40.68963,-73.92227,376,0,0,0,GATES AVENUE,"J, Z",J,"J, Z"
0101000020E6100000498446B0717B52C0BC783F6EBF584440,0,J31,0,KOSCIUSKO STREET,0,40.693342,-73.928814,377,0,0,0,KOSCIUSKO STREET,J,J,J
0101000020E61000001A6CEA3C2A8052C09FAA4203B15E4440,0,L01,0,8TH AVENUE  14 STREET,0,40.739777,-74.002578,378,0,0,0,8TH AVENUE  14 STREET,L,L,L
0101000020E610000015C78157CB7F52C01C9947FE605E4440,0,L02,0,6 AVENUE,0,40.737335,-73.996786,379,0,0,0,6 AVENUE,L,L,L
0101000020E6100000A14ACD1E687F52C0F33AE2900D5E4440,0,L03,0,UNION SQUARE - 14 STREET,0,40.734789,-73.99073,380,0,0,0,UNION SQUARE - 14 STREET,L,L,L
0101000020E61000006EF7729F1C7F52C002F4FBFECD5D4440,0,L05,0,3RD AVENUE - 14 STREET,0,40.732849,-73.986122,381,0,0,0,3RD AVENUE - 14 STREET,L,L,L
0101000020E6100000A0353FFED27E52C0E0F42EDE8F5D4440,0,L06,0,1ST AVENUE - 14 STREET,0,40.730953,-73.981628,382,0,0,0,1ST AVENUE - 14 STREET,L,L,L
0101000020E6100000529D0E643D7D52C01EA5129ED05B4440,0,L08,0,BEDFORD AVENUE,0,40.717304,-73.956872,383,0,0,0,BEDFORD AVENUE,L,L,L
0101000020E610000036CD3B4ED17C52C04E24986A665B4440,0,L10,0,LORIMER STREET,0,40.714063,-73.950275,384,0,0,0,LORIMER STREET,L,L,L
0101000020E6100000342C465D6B7C52C0E1EEACDD765B4440,0,L11,0,GRAHAM AVENUE,0,40.714565,-73.944053,385,0,0,0,GRAHAM AVENUE,L,L,L
0101000020E61000000395F1EF337C52C007962364205B4440,0,L12,0,GRAND STREET,0,40.711926,-73.94067,386,0,0,0,GRAND STREET,L,L,L
0101000020E610000052499D80267C52C0478D0931975A4440,0,L13,0,MONTROSE AVENUE,0,40.707739,-73.93985,387,0,0,0,MONTROSE AVENUE,L,L,L
0101000020E610000013D731AEB87B52C0A4005130635A4440,0,L14,0,MORGAN AVENUE,0,40.706152,-73.933147,388,0,0,0,MORGAN AVENUE,L,L,L
0101000020E61000006803B001117B52C0F50F2219725A4440,0,L15,0,JEFFERSON STREET,0,40.706607,-73.922913,389,0,0,0,JEFFERSON STREET,L,L,L
0101000020E61000000BB5A679C77A52C054C8957A165A4440,0,L16,0,DEKALB AVE - CANARSIE LI,0,40.703811,-73.918425,390,0,0,0,DEKALB AVE - CANARSIE LI,L,L,L
0101000020E6100000745FCE6C577A52C038A4518193594440,0,L17,0,MYRTLE AVENUE - WYCKOFF AV,0,40.699814,-73.911586,391,0,0,0,MYRTLE AVENUE - WYCKOFF AV,L,L,L
0101000020E61000008F352383DC7952C01F84807C09594440,0,L19,0,HALSEY STREET - CANARSIE,0,40.695602,-73.904084,392,0,0,0,HALSEY STREET - CANARSIE,L,L,L
0101000020E61000001805C1E3DB7952C0C054336B29584440,0,L20,0,WILSON AVENUE,0,40.688764,-73.904046,393,0,0,0,WILSON AVENUE,L,L,L
0101000020E6100000266F8099EF7952C053E1CFF066574440,0,L21,0,BUSHWICK AVENUE - ABERDEEN ST,0,40.682829,-73.905249,394,0,0,0,BUSHWICK AVENUE - ABERDEEN ST,L,L,L
0101000020E6100000191C25AFCE7952C0C158DFC0E4564440,0,L22,0,BROADWAY JUNCTION,0,40.678856,-73.90324,395,0,0,0,BROADWAY JUNCTION,L,L,L
0101000020E610000068075C57CC7952C0314278B471564440,0,L24,0,ATLANTIC AVENUE,0,40.675345,-73.903097,396,0,0,0,ATLANTIC AVENUE,L,L,L
0101000020E6100000D0B359F5B97952C0C5025FD1AD554440,0,L25,0,SUTTER AVENUE,0,40.669367,-73.901975,397,0,0,0,SUTTER AVENUE,L,L,L
0101000020E6100000772E8CF4A27952C08FA67A32FF544440,0,L26,0,LIVONIA AVENUE,0,40.664038,-73.900571,398,0,0,0,LIVONIA AVENUE,L,L,L
0101000020E610000011E15F048D7952C0E2E5E95C51544440,0,L27,0,NEW LOTS AVENUE,0,40.658733,-73.899232,399,0,0,0,NEW LOTS AVENUE,L,L,L
0101000020E6100000868F8829917952C08F54DFF945534440,0,L28,0,EAST 105TH STREET,0,40.650573,-73.899485,400,0,0,0,EAST 105TH STREET,L,L,L
0101000020E610000072F90FE9B77952C0EDE9EA8EC5524440,0,L29,0,ROCKAWAY PARKWAY - CANARSIE,0,40.646654,-73.90185,401,0,0,0,ROCKAWAY PARKWAY - CANARSIE,L,L,L
0101000020E6100000495F0839EF7852C0AB402D060F5B4440,0,M01,0,METROPOLITAN AVENUE,0,40.711396,-73.889601,402,0,0,0,METROPOLITAN AVENUE,M,M,M
0101000020E6100000450F7C0C567952C05072874D645A4440,0,M04,0,FRESH POND ROAD,0,40.706186,-73.895877,403,0,0,0,FRESH POND ROAD,M,M,M
0101000020E610000044317903CC7952C06DC669882A5A4440,0,M05,0,FOREST AVENUE,0,40.704423,-73.903077,404,0,0,0,FOREST AVENUE,M,M,M
0101000020E610000059518369187A52C08F6FEF1AF4594440,0,M06,0,SENECA AVENUE,0,40.702762,-73.90774,405,0,0,0,SENECA AVENUE,M,M,M
0101000020E610000019170E84647A52C0AFEB17EC86594440,0,M08,0,WYCKOFF AVENUE (MYRTLE),0,40.69943,-73.912385,406,0,0,0,WYCKOFF AVENUE - MYRTLE,M,M,M
0101000020E610000060B1868BDC7A52C03F726BD26D594440,0,M09,0,KNICKERBOCKER,0,40.698664,-73.919711,407,0,0,0,KNICKERBOCKER,M,M,M
0101000020E6100000255AF2785A7B52C07024D06053594440,0,M10,0,CENTRAL AVENUE,0,40.697857,-73.927397,408,0,0,0,CENTRAL AVENUE,M,M,M
0101000020E610000081D1E5CDE17B52C069C537143E594440,0,M11,0,MYRTLE AVE - BROADWAY,0,40.697207,-73.935657,409,0,0,0,MYRTLE AVE - BROADWAY,"J, M, Z","J, M","J, M, Z"
0101000020E610000094DA8B683B7C52C03659A31EA2594440,0,M12,0,FLUSHING AVENUE,0,40.70026,-73.941126,410,0,0,0,FLUSHING AVENUE,"J, M","J, M","J, M"
0101000020E610000000FE2955A27C52C088D51F61185A4440,0,M13,0,LORIMER STREET,0,40.703869,-73.947408,411,0,0,0,LORIMER STREET,"J, M","J, M","J, M"
0101000020E610000086FF7403057D52C0024356B77A5A4440,0,M14,0,HEWES STREET,0,40.70687,-73.953431,412,0,0,0,HEWES STREET,"J, M","J, M","J, M"
0101000020E6100000F72004E44B7D52C0E469F981AB5A4440,0,M16,0,MARCY AVENUE,0,40.708359,-73.957757,413,0,0,0,MARCY AVENUE,"J, M, Z","J, M","J, M, Z"
0101000020E61000001077F52A327F52C0F49CF4BEF15B4440,0,M18,0,ESSEX STREET,0,40.718315,-73.987437,414,0,0,0,ESSEX STREET,"J, M, Z","J, M","J, M, Z"
0101000020E61000003F00A94D9C7F52C040FB9122325C4440,0,M19,0,BOWERY,0,40.72028,-73.993915,415,0,0,0,BOWERY,J,J,J
0101000020E61000000DE2033BFE7F52C076C24B70EA5B4440,0,M20,0,CANAL STREET,0,40.718092,-73.999892,416,0,0,0,CANAL STREET,"J, Z",J,"J, Z"
0101000020E610000084F1D3B8378052C0EA8CEF8B4B5B4440,0,M21,0,CHAMBERS STREET,0,40.713243,-74.003401,417,0,0,0,CHAMBERS STREET,"J, Z",J,"J, Z"
0101000020E6100000738236397C8052C0E0F60489ED5A4440,0,M22,0,FULTON STREET,0,40.710374,-74.007582,418,0,0,0,FULTON STREET,"J, Z",J,"J, Z"
0101000020E61000002C9B3924B58052C057B439CE6D5A4440,0,M23,0,BROAD STREET,0,40.706476,-74.011056,419,0,0,0,BROAD STREET,"J, Z",J,"J, Z"
0101000020E61000007A6F0C01C08052C0F86EF3C649514440,0,N02,0,8TH AVENUE (SEA BEACH),0,40.635064,-74.011719,420,0,0,0,8TH AVENUE - SEA BEACH,N,N,N
0101000020E61000000F80B8AB578052C07D93A641D1504440,0,N03,0,FORT HAMILTON,0,40.631386,-74.005351,421,0,0,0,FORT HAMILTON,N,N,N
0101000020E61000005F915F3FC47F52C0689599D2FA4F4440,0,N04,0,NEW UTRECHT AVENUE,0,40.624842,-73.996353,422,0,0,0,NEW UTRECHT AVENUE,N,N,N
0101000020E610000008E066F1627F52C0AE49B725724F4440,0,N05,0,18TH AVENUE (SEA BEACH -18 AV),0,40.620671,-73.990414,423,0,0,0,18TH AVENUE  -  SEA BEACH -18 AV,N,N,N
0101000020E61000006CED7DAA0A7F52C0961C774A074F4440,0,N06,0,20TH AVENUE (SEA BEACH),0,40.61741,-73.985026,424,0,0,0,20TH AVENUE - SEA BEACH,N,N,N
0101000020E61000002769FE98D67E52C0E31934F44F4E4440,0,N07,0,BAY PARKWAY (SEA BEACH),0,40.611815,-73.981848,425,0,0,0,BAY PARKWAY - SEA BEACH,N,N,N
0101000020E61000004562821ABE7E52C0AF264F594D4D4440,0,N08,0,KINGS HIGHWAY,0,40.603923,-73.980353,426,0,0,0,KINGS HIGHWAY,N,N,N
0101000020E61000006D533C2EAA7E52C01B9FC9FE794C4440,0,N09,0,AVENUE U (SEA  BEACH),0,40.597473,-73.979137,427,0,0,0,AVENUE U - SEA  BEACH,N,N,N
0101000020E6100000D47D00529B7E52C082531F48DE4B4440,0,N10,0,86TH STREET (SEA BEACH-GRAVESEND),0,40.592721,-73.97823,428,0,0,0,86TH STREET  -  SEA BEACH-GRAVESEND,N,N,N
0101000020E6100000313D6189078052C04E8061F9F35B4440,0,Q01,0,CANAL STREET / BRIDGE,0,40.718383,-74.00046,429,0,0,0,CANAL STREET / BRIDGE,"N, Q","N, Q","N, Q"
0101000020E6100000C4B5DAC35E7A52C0809C306134634440,0,R01,0,DITMARS BOULEVARD - ASTORIA,0,40.775036,-73.912034,430,0,0,0,DITMARS BOULEVARD - ASTORIA,"N, Q","N, Q","N, Q"
0101000020E610000033F790F0BD7A52C0BDBD6BD097624440,0,R03,0,ASTORIA BOULEVARD (HOYT AV),0,40.770258,-73.917843,431,0,0,0,ASTORIA BOULEVARD - HOYT AV,"N, Q","N, Q","N, Q"
0101000020E6100000D93C0E83F97A52C03A2174D025624440,0,R04,0,30TH AVENUE(GRAND AV),0,40.766779,-73.921479,432,0,0,0,30TH AVENUE- GRAND AV,"N, Q","N, Q","N, Q"
0101000020E6100000ED0BE8853B7B52C028B8585183614440,0,R05,0,BROADWAY,0,40.76182,-73.925508,433,0,0,0,BROADWAY,"N, Q","N, Q","N, Q"
0101000020E6100000780B24287E7B52C0B2BD16F4DE604440,0,R06,0,36TH AVENUE - WASHINGTON AV,0,40.756804,-73.929575,434,0,0,0,36TH AVENUE - WASHINGTON AV,"N, Q","N, Q","N, Q"
0101000020E61000008C0B0742B27B52C09FDFF76F5E604440,0,R08,0,39TH AVENUE - BEEBE AV,0,40.752882,-73.932755,435,0,0,0,39TH AVENUE - BEEBE AV,"N, Q","N, Q","N, Q"
0101000020E6100000906802452C7C52C0AF7B2B1213604440,0,R09,0,QUEENSBORO PLAZA (ELEVATED),0,40.750582,-73.940202,436,0,0,0,QUEENSBORO PLAZA - ELEVATED,"N, Q","N, Q","N, Q"
0101000020E6100000D732198EE77D52C0D2FBC6D79E614440,0,R11,0,LEXINGTON AVENUE - 59 ST,0,40.76266,-73.967258,437,0,0,0,LEXINGTON AVENUE - 59 ST,"N, Q, R","N, Q, R","N, Q, R"
0101000020E6100000392A37514B7E52C07F4FAC53E5614440,0,R13,0,5TH AVENUE - 59 ST,0,40.764811,-73.973347,438,0,0,0,5TH AVENUE - 59 ST,"N, Q, R","N, Q, R","N, Q, R"
0101000020E6100000E4A3C519C37E52C0DA368C82E0614440,0,R14,0,57TH STREET / 7TH AVENUE (MIDTOWN),0,40.764664,-73.980658,439,0,0,0,57TH STREET / 7TH AVENUE - MIDTOWN,"N, Q, R","N, Q, R","N, Q, R"
0101000020E6100000F6ED2422FC7E52C04D999B6F44614440,0,R15,0,49TH STREET,0,40.759901,-73.984139,440,0,0,0,49TH STREET,"N, Q, R","N, Q, R","N, Q, R"
0101000020E61000009FCC3FFA267F52C07C9A931799604440,0,R16,0,TIMES SQUARE - 42 ST,0,40.754672,-73.986754,441,0,0,0,TIMES SQUARE - 42 ST,"N, Q, R","N, Q, R","N, Q, R"
0101000020E61000005305A3923A7F52C09694BBCFF15F4440,0,R17,0,34TH STREET - HERALD SQ,0,40.749567,-73.98795,442,0,0,0,34TH STREET - HERALD SQ,"N, Q, R","N, Q, R","N, Q, R"
0101000020E61000005FB69DB6467F52C09FAEEE586C5F4440,0,R18,0,28TH STREET,0,40.745494,-73.988691,443,0,0,0,28TH STREET,"N, R","N, R","N, R"
0101000020E61000009B1F7F69517F52C09EB64604E35E4440,0,R19,0,23RD STREET,0,40.741303,-73.989344,444,0,0,0,23RD STREET,"N, R","N, R","N, R"
0101000020E6100000B41D5377657F52C0B43EE5982C5E4440,0,R20,0,UNION SQUARE (14 ST),0,40.735736,-73.990568,445,0,0,0,UNION SQUARE - 14 ST,"N, Q, R","N, Q, R","N, Q, R"
0101000020E6100000E903C93B877F52C032AD4D637B5D4440,0,R21,0,8TH STREET (NYU),0,40.730328,-73.992629,446,0,0,0,8TH STREET - NYU,"N, R","N, R","N, R"
0101000020E6100000D8497D59DA7F52C0AE450BD0B65C4440,0,R22,0,PRINCE STREET,0,40.724329,-73.997702,447,0,0,0,PRINCE STREET,"N, R","N, R","N, R"
0101000020E6100000D3BCE3141D8052C063CBF275195C4440,0,R23,0,CANAL STREET / TUNNEL,0,40.719527,-74.001775,448,0,0,0,CANAL STREET / TUNNEL,R,"N, R","N, R"
0101000020E6100000A872DA53728052C0A96917D34C5B4440,0,R24,0,CITY HALL,0,40.713282,-74.006978,449,0,0,0,CITY HALL,R,"N, R","N, R"
0101000020E6100000D5592DB0C78052C0F792C6681D5B4440,0,R25,0,CORTLANDT STREET - WORLD TRADE CENTER,0,40.711835,-74.012188,450,0,0,0,CORTLANDT STREET,1,1,1
0101000020E6100000726A6798DA8052C0DE89592F865A4440,0,R26,0,RECTOR STREET,0,40.70722,-74.013342,451,0,0,0,RECTOR STREET,R,"N, R","N, R"
0101000020E6100000D542C9E4D48052C0129F3BC1FE594440,0,R27,0,WHITEHALL ST - SOUTH FERRY,0,40.703087,-74.012994,452,0,0,0,WHITEHALL ST - SOUTH FERRY,R,"N, R","N, R"
0101000020E610000033FB3C46797F52C0A913D044D8584440,0,R28,0,COURT STREET,0,40.6941,-73.991777,453,0,0,0,COURT STREET,R,"N, R","N, R"
0101000020E61000002E7079AC197F52C0FF78AF5A99584440,0,R29,0,LAWRENCE STREET,0,40.69218,-73.985942,454,0,0,0,LAWRENCE STREET,R,"N, R","N, R"
0101000020E6100000639B5434D67E52C08A3C49BA66584440,0,R30,0,DEKALB AVENUE,0,40.690635,-73.981824,455,0,0,0,DEKALB AVENUE,"B, Q, R","B, D, N, Q, R","B, D, N, Q, R"
0101000020E6100000DABFB2D2A47E52C08EB1135E82574440,0,R31,0,PACIFIC STREET - ATLANTIC,0,40.683666,-73.97881,456,0,0,0,PACIFIC STREET - ATLANTIC,"D, N, R","D, N, R","D, N, R"
0101000020E6100000B7973446EB7E52C05D876A4AB2564440,0,R32,0,UNION STREET,0,40.677316,-73.98311,457,0,0,0,UNION STREET,R,"D, N, R","D, N, R"
0101000020E610000092240857407F52C053CF8250DE554440,0,R33,0,9TH STREET - 4TH AVE,0,40.670847,-73.988302,458,0,0,0,9TH STREET - 4TH AVE,R,"D, N, R","D, N, R"
0101000020E61000004E4700378B7F52C0772634492C554440,0,R34,0,PROSPECT AVENUE,0,40.665414,-73.992872,459,0,0,0,PROSPECT AVENUE,R,"D, N, R","D, N, R"
0101000020E6100000A5DB12B9E07F52C032B08EE387544440,0,R35,0,25TH STREET,0,40.660397,-73.998091,460,0,0,0,25TH STREET,R,"D, N, R","D, N, R"
0101000020E6100000BFBB95253A8052C0D61533C2DB534440,0,R36,0,36TH STREET - 4TH AVE,0,40.655144,-74.003549,461,0,0,0,36TH STREET - 4TH AVE,"D, N, R","D, N, R","D, N, R"
0101000020E6100000E2B034F0A38052C0AA0CE36E10534440,0,R39,0,45TH STREET,0,40.648939,-74.010006,462,0,0,0,45TH STREET,"N, R","N, R","N, R"
0101000020E61000000DC2DCEEE58052C0EB54F99E91524440,0,R40,0,53RD STREET,0,40.645069,-74.014034,463,0,0,0,53RD STREET,"N, R","N, R","N, R"
0101000020E6100000118E59F6248152C0D672672618524440,0,R41,0,59TH STREET - 4TH AVE.,0,40.641362,-74.017881,464,0,0,0,59TH STREET - 4TH AVE,"N, R","N, R","N, R"
0101000020E6100000A19E3E027F8152C00685419946514440,0,R42,0,BAY RIDGE AVENUE,0,40.634967,-74.023377,465,0,0,0,BAY RIDGE AVENUE,R,R,R
0101000020E610000023EEB1F4A18152C07575C7629B504440,0,R43,0,77TH STREET,0,40.629742,-74.02551,466,0,0,0,77TH STREET,R,R,R
0101000020E61000006551D845D18152C07A522635B44F4440,0,R44,0,86TH STREET,0,40.622687,-74.028398,467,0,0,0,86TH STREET,R,R,R
0101000020E6100000CD8E54DFF98152C03FFF3D78ED4E4440,0,R45,0,95TH ST. - FORT HAMILTON - BAY RIDGE,0,40.616622,-74.030876,468,0,0,0,95TH ST - FORT HAMILTON,R,R,R
0101000020E6100000906802452C7D52C0EBE40CC51D574440,0,S01,0,FRANKLIN - FULTON,0,40.680596,-73.955827,469,0,0,0,FRANKLIN - FULTON,FS,FS,FS
0101000020E610000057772CB6497D52C0D420CCED5E564440,0,S03,0,PARK PLACE,0,40.674772,-73.957624,470,0,0,0,PARK PLACE,FS,FS,FS
0101000020E61000007FF62345647D52C0200DA7CCCD554440,0,S04,0,BOTANIC GARDENS - EASTERN PKWY,0,40.670343,-73.959245,471,0,0,0,BOTANIC GARDENS - EASTERN PKWY,FS,FS,FS
0101000020E610000014252191B68452C0C56E9F5566524440,0,S31,0,SAINT GEORGE TERMINAL,0,40.643748,-74.073643,472,0,0,0,SAINT GEORGE TERMINAL,SI,SI,SI
0101000020E61000002766BD18CA8452C0251C7A8B87514440,0,S30,0,TOMPKINSVILLE,0,40.636949,-74.074835,473,0,0,0,TOMPKINSVILLE,SI,SI,SI
0101000020E6100000BAF94674CF8452C07CD5CA845F504440,0,S29,0,STAPLETON,0,40.627915,-74.075162,474,0,0,0,STAPLETON,SI,SI,SI
0101000020E61000009EB7B1D9918452C014B18861874F4440,0,S28,0,CLIFTON,0,40.621319,-74.071402,475,0,0,0,CLIFTON,SI,SI,SI
0101000020E610000033C170AE618552C0AF5417F0324D4440,0,S27,0,GRASMERE,0,40.603117,-74.084087,476,0,0,0,GRASMERE,SI,SI,SI
0101000020E6100000E2ADF36F978552C0583332C85D4C4440,0,S26,0,OLD TOWN,0,40.596612,-74.087368,477,0,0,0,OLD TOWN,SI,SI,SI
0101000020E610000040DEAB56268652C023A46E675F4B4440,0,S25,0,DONGAN HILLS,0,40.588849,-74.09609,478,0,0,0,DONGAN HILLS,SI,SI,SI
0101000020E6100000C79BFC169D8652C0B69E211CB34A4440,0,S24,0,JEFFERSON AVENUE,0,40.583591,-74.103338,479,0,0,0,JEFFERSON AVENUE,SI,SI,SI
0101000020E6100000620FED63058752C0AA436E861B4A4440,0,S23,0,GRANT CITY,0,40.578965,-74.109704,480,0,0,0,GRANT CITY,SI,SI,SI
0101000020E6100000E8305F5E808752C07E74EACA67494440,0,S22,0,NEW DORP,0,40.57348,-74.11721,481,0,0,0,NEW DORP,SI,SI,SI
0101000020E61000002B357BA0158852C03F52448655484440,0,S21,0,OAKWOOD HEIGHTS,0,40.56511,-74.12632,482,0,0,0,OAKWOOD HEIGHTS,SI,SI,SI
0101000020E6100000FBE59315C38852C048BF7D1D38474440,0,S20,0,BAY TERRACE,0,40.5564,-74.136907,483,0,0,0,BAY TERRACE,SI,SI,SI
0101000020E61000006A696E85B08952C04CC5C6BC8E464440,0,S19,0,GREAT KILLS,0,40.551231,-74.151399,484,0,0,0,GREAT KILLS,SI,SI,SI
0101000020E6100000C6F99B50888A52C0382F4E7CB5454440,0,S18,0,ELTINGVILLE,0,40.544601,-74.16457,485,0,0,0,ELTINGVILLE,SI,SI,SI
0101000020E6100000D6A546E8678B52C0E96514CB2D454440,0,S17,0,ANNADALE,0,40.54046,-74.178217,486,0,0,0,ANNADALE,SI,SI,SI
0101000020E61000006B64575A468C52C0DD5CFC6D4F444440,0,S16,0,HUGUENOT,0,40.533674,-74.191794,487,0,0,0,HUGUENOT,SI,SI,SI
0101000020E6100000D8463CD9CD8C52C0D76839D043434440,0,S15,0,PRINCES BAY,0,40.525507,-74.200064,488,0,0,0,PRINCES BAY,SI,SI,SI
0101000020E610000008228B34F18D52C03B8DB454DE424440,0,S14,0,PLEASANT PLAINS,0,40.52241,-74.217847,489,0,0,0,PLEASANT PLAINS,SI,SI,SI
0101000020E61000000E4B033FAA8E52C06E7EC34483424440,0,S13,0,RICHMOND VALLEY,0,40.519631,-74.229141,490,0,0,0,RICHMOND VALLEY,SI,SI,SI
0101000020E61000002AFF5A5EB98F52C0B0A9F3A8F8414440,0,S10,0,ATLANTIC,0,40.515401,-74.245689,492,0,0,0,ATLANTIC,SI,SI,SI
0101000020E610000084B70721209052C077483140A2414440,0,S09,0,TOTTENVILLE,0,40.512764,-74.251961,493,0,0,0,TOTTENVILLE,SI,SI,SI
